country_code,postal_code,place_name,state_name,state_code,county_name,county_code,community_name,community_code,latitude,longitude,accuracy
DE,01053,Commerzbank AG,Saxony,13,,,Kreisfreie Stadt Dresden,14612.0,51.0562,13.7323,
DE,01054,"Sächsische Landesbibliothek - Staats- und Universitätsbibliothek Dresden, Sächsische Aufbaubank",Saxony,13,,,Kreisfreie Stadt Dresden,14612.0,51.03765,13.74305,
DE,01055,Dresdner Druck-u.Verlagshaus GmbH &Co.KG Unternehmensbereich Zeitungen,Saxony,13,,,Kreisfreie Stadt Dresden,14612.0,51.0569,13.7287,
DE,01056,Finanzamt Dresden - Nord,Saxony,13,,,Kreisfreie Stadt Dresden,14612.0,51.0355,13.7404,
DE,01057,HUK-Coburg,Saxony,13,,,Kreisfreie Stadt Dresden,14612.0,51.0456,13.7387,
DE,01058,AOK Sachsen - Die Gesundheitskasse,Saxony,13,,,Kreisfreie Stadt Dresden,14612.0,51.0466,13.7268,
DE,01059,"Deutsche Telekom AG, GSUS",Saxony,13,,,Kreisfreie Stadt Dresden,14612.0,51.0826,13.7258,
DE,01060,Mitteldeutscher Rundfunk Landesfunkhaus Sachsen,Saxony,13,,,Kreisfreie Stadt Dresden,14612.0,51.1037,13.7709,
DE,01062,Technische Universität,Saxony,13,,,Kreisfreie Stadt Dresden,14612.0,51.0289,13.7239,
DE,01063,Deutsche Post AG HR Service Germany,Saxony,13,,,Kreisfreie Stadt Dresden,14612.0,51.0334,13.7072,
DE,01064,ENSO Energie Sachsen Ost AG,Saxony,13,,,Kreisfreie Stadt Dresden,14612.0,51.0387,13.7327,
DE,01065,DREWAG - Stadtwerke Dresden GmbH,Saxony,13,,,Kreisfreie Stadt Dresden,14612.0,51.0387,13.7327,
DE,01067,"Dresden, Dresden Innere Altstadt, Dresden Friedrichstadt",Sachsen,SN,,0.0,Kreisfreie Stadt Dresden,14612.0,51.0547,13.7269,4.0
DE,01069,Dresden,Sachsen,SN,,0.0,Kreisfreie Stadt Dresden,14612.0,51.043,13.7373,4.0
DE,01070,Deutsche Post AG HR Service Germany,Saxony,13,,,Kreisfreie Stadt Dresden,14612.0,51.0334,13.7072,
DE,01095,"Ministerpräsident des Freistaates Sachsen, Sächsische Staatskanzlei, Sächsisches Staatsministerium des Innern",Saxony,13,,,Kreisfreie Stadt Dresden,14612.0,51.0573,13.7493,
DE,01097,Dresden,Sachsen,SN,,0.0,Kreisfreie Stadt Dresden,14612.0,51.0714,13.7399,4.0
DE,01099,Dresden,Sachsen,SN,,0.0,Kreisfreie Stadt Dresden,14612.0,51.0783,13.8051,4.0
DE,01108,"Weixdorf, Dresden, Marsdorf",Sachsen,SN,,0.0,Kreisfreie Stadt Dresden,14612.0,51.15573333333333,13.782466666666666,4.0
DE,01109,"Klotzsche, Hellerau, Wilschdorf, Dresden",Sachsen,SN,,0.0,Kreisfreie Stadt Dresden,14612.0,51.1164,13.7468,4.0
DE,01127,Dresden,Sachsen,SN,,0.0,Kreisfreie Stadt Dresden,14612.0,51.079,13.7208,4.0
DE,01129,Dresden,Sachsen,SN,,0.0,Kreisfreie Stadt Dresden,14612.0,51.0967,13.736,4.0
DE,01139,Dresden,Sachsen,SN,,0.0,Kreisfreie Stadt Dresden,14612.0,51.0836,13.6981,4.0
DE,01156,"Dresden Gompitz, Steinbach, Dresden Gompitz, Zöllmen, Dresden Gompitz, Pennrich, Dresden Gompitz, Gompitz, Dresden Gompitz, Roitzsch, Dresden Gompitz, Unkersdorf, Dresden Gompitz, Ockerwitz, Dresden, Dresden Altfranken, Dresden Gompitz",Sachsen,SN,,0.0,Kreisfreie Stadt Dresden,14612.0,51.04942,13.62143,4.0
DE,01157,Dresden,Sachsen,SN,,0.0,Kreisfreie Stadt Dresden,14612.0,51.0707,13.6729,4.0
DE,01159,Dresden,Sachsen,SN,,0.0,Kreisfreie Stadt Dresden,14612.0,51.0452,13.6996,4.0
DE,01169,Dresden,Sachsen,SN,,0.0,Kreisfreie Stadt Dresden,14612.0,51.0443,13.6738,4.0
DE,01187,Dresden,Sachsen,SN,,0.0,Kreisfreie Stadt Dresden,14612.0,51.0281,13.6943,4.0
DE,01189,Dresden,Sachsen,SN,,0.0,Kreisfreie Stadt Dresden,14612.0,51.05,13.75,4.0
DE,01213,Agentur für Arbeit Dresden,Saxony,13,,,Kreisfreie Stadt Dresden,14612.0,51.0408,13.7198,
DE,01217,Dresden,Sachsen,SN,,0.0,Kreisfreie Stadt Dresden,14612.0,51.05,13.75,4.0
DE,01219,Dresden,Sachsen,SN,,0.0,Kreisfreie Stadt Dresden,14612.0,51.021,13.7679,4.0
DE,01237,Dresden,Sachsen,SN,,0.0,Kreisfreie Stadt Dresden,14612.0,51.013,13.7988,4.0
DE,01239,Dresden,Sachsen,SN,,0.0,Kreisfreie Stadt Dresden,14612.0,51.0066,13.8089,4.0
DE,01255,R + V Versicherung Filialdirektion Dresden,Saxony,13,,,Kreisfreie Stadt Dresden,14612.0,51.0533,13.783,
DE,01257,Dresden,Sachsen,SN,,0.0,Kreisfreie Stadt Dresden,14612.0,51.0114,13.8054,4.0
DE,01259,Dresden,Sachsen,SN,,0.0,Kreisfreie Stadt Dresden,14612.0,51.05,13.75,4.0
DE,01264,Finanzamt Dresden - Süd,Saxony,13,,,Kreisfreie Stadt Dresden,14612.0,51.0355,13.7404,
DE,01277,"Dresden Striesen, Dresden, Dresden Tolkewitz",Sachsen,SN,,0.0,Kreisfreie Stadt Dresden,14612.0,51.042566666666666,13.787033333333333,4.0
DE,01279,"Dresden Tolkewitz, Dresden",Sachsen,SN,,0.0,Kreisfreie Stadt Dresden,14612.0,51.0425,13.780100000000001,4.0
DE,01303,ZBI GmbH,Saxony,13,,,Kreisfreie Stadt Dresden,14612.0,51.0536,13.7608,
DE,01304,Universitätsklinikum Carl Gustav Carus der TU Dresden,Saxony,13,,,Kreisfreie Stadt Dresden,14612.0,51.0517,13.777,
DE,01305,Ostsächsische Sparkasse Dresden,Saxony,13,,,Kreisfreie Stadt Dresden,14612.0,51.054,13.7588,
DE,01307,Dresden,Sachsen,SN,,0.0,Kreisfreie Stadt Dresden,14612.0,51.05,13.75,4.0
DE,01309,"Dresden, Dresden Blasewitz",Sachsen,SN,,0.0,Kreisfreie Stadt Dresden,14612.0,51.05095,13.77835,4.0
DE,01324,Dresden,Sachsen,SN,,0.0,Kreisfreie Stadt Dresden,14612.0,51.05,13.75,4.0
DE,01326,Dresden,Sachsen,SN,,0.0,Kreisfreie Stadt Dresden,14612.0,51.0538,13.8155,4.0
DE,01328,Dresden,Sachsen,SN,,0.0,Kreisfreie Stadt Dresden,14612.0,51.05,13.75,4.0
DE,01332,Amazon FC WRO2,Saxony,13,,,Landkreis Bautzen,14625.0,51.178,13.8417,
DE,01333,Deutsche Post AG Niederlassung BRIEF Dresden,Saxony,13,,,Landkreis Bautzen,14625.0,51.1802,13.8384,
DE,01445,Radebeul,Sachsen,SN,,0.0,Landkreis Meißen,14627.0,51.1065,13.6605,4.0
DE,01454,"Radeberg, Wachau",Sachsen,SN,,0.0,Landkreis Bautzen,14625.0,51.1364,13.90925,4.0
DE,01458,Ottendorf-Okrilla,Sachsen,SN,,0.0,Landkreis Bautzen,14625.0,51.1833,13.8333,4.0
DE,01465,"Dresden, Dresden Langebrück",Sachsen,SN,,0.0,Kreisfreie Stadt Dresden,14612.0,51.09165,13.8,4.0
DE,01468,Moritzburg,Sachsen,SN,,0.0,Landkreis Meißen,14627.0,51.1592,13.6802,4.0
DE,01471,Radeburg,Sachsen,SN,,0.0,Landkreis Meißen,14627.0,51.2152,13.7281,4.0
DE,01477,Arnsdorf,Sachsen,SN,,0.0,Landkreis Bautzen,14625.0,51.0942,13.9918,4.0
DE,01558,Großenhain,Sachsen,SN,,0.0,Landkreis Meißen,14627.0,51.2895,13.5335,4.0
DE,01561,"Lampertswalde, Ebersbach, Wildenhain, Tauscha, Zabeltitz, Schönfeld, Weißig am Raschütz, Priestewitz, Thiendorf",Sachsen,SN,,0.0,Landkreis Meißen,14627.0,51.2955,13.635777777777777,4.0
DE,01585,Agentur für Arbeit Riesa,Saxony,13,,,Landkreis Meißen,14627.0,51.3068,13.2854,
DE,01587,Riesa,Sachsen,SN,,0.0,Landkreis Meißen,14627.0,51.2991,13.2848,4.0
DE,01589,Riesa,Sachsen,SN,,0.0,Landkreis Meißen,14627.0,51.3026,13.3097,4.0
DE,01591,Riesa,Sachsen,SN,,0.0,Landkreis Meißen,14627.0,51.3,13.3,4.0
DE,01594,"Stauchitz, Hirschstein",Sachsen,SN,,0.0,Landkreis Meißen,14627.0,51.2509,13.3072,4.0
DE,01609,"Wülknitz, Nauwalde, Gröditz",Sachsen,SN,,0.0,Landkreis Meißen,14627.0,51.3938,13.403566666666668,4.0
DE,01612,"Diesbar-Seußlitz, Nünchritz, Glaubitz",Sachsen,SN,,0.0,Landkreis Meißen,14627.0,51.2994,13.393500000000001,4.0
DE,01616,Strehla,Sachsen,SN,,0.0,Landkreis Meißen,14627.0,51.3525,13.2266,4.0
DE,01619,"Zeithain, Röderaue",Sachsen,SN,,0.0,Landkreis Meißen,14627.0,51.36055,13.3982,4.0
DE,01623,"Ketzerbachtal, Leuben-Schleinitz, Lommatzsch",Sachsen,SN,,0.0,Landkreis Meißen,14627.0,51.15313333333334,13.3178,4.0
DE,01640,Coswig,Sachsen,SN,,0.0,Landkreis Meißen,14627.0,51.132,13.5831,4.0
DE,01662,Meißen,Sachsen,SN,,0.0,Landkreis Meißen,14627.0,51.1649,13.4859,4.0
DE,01665,"Klipphausen, Taubenheim, Käbschütztal, Diera-Zehren, Triebischtal",Sachsen,SN,,0.0,Landkreis Meißen,14627.0,51.12028,13.442580000000001,4.0
DE,01683,"Heynitz, Nossen",Sachsen,SN,,0.0,Landkreis Meißen,14627.0,51.0819,13.3598,4.0
DE,01689,"Niederau, Weinböhla",Sachsen,SN,,0.0,Landkreis Meißen,14627.0,51.15535,13.5687,4.0
DE,01705,Freital,Sachsen,SN,,0.0,Landkreis Sächsische Schweiz,14628.0,51.0017,13.6488,4.0
DE,01723,Wilsdruff,Sachsen,SN,,0.0,Landkreis Sächsische Schweiz,14628.0,51.052,13.5366,4.0
DE,01728,Bannewitz,Sachsen,SN,,0.0,Landkreis Sächsische Schweiz,14628.0,50.9929,13.7171,4.0
DE,01730,Klinik Bavaria,Saxony,13,,,Landkreis Sächsische Schweiz,14628.0,50.9462,13.7706,
DE,01731,Kreischa,Sachsen,SN,,0.0,Landkreis Sächsische Schweiz,14628.0,50.9453,13.7551,4.0
DE,01734,Rabenau,Sachsen,SN,,0.0,Landkreis Sächsische Schweiz,14628.0,50.9648,13.6431,4.0
DE,01737,Tharandt,Sachsen,SN,,0.0,Landkreis Sächsische Schweiz,14628.0,50.9791,13.5236,4.0
DE,01738,Dorfhain,Sachsen,SN,,0.0,Landkreis Sächsische Schweiz,14628.0,50.9333,13.5667,4.0
DE,01744,Dippoldiswalde,Sachsen,SN,,0.0,Landkreis Sächsische Schweiz,14628.0,50.8962,13.6691,4.0
DE,01762,"Hartmannsdorf-Reichenau, Schmiedeberg",Sachsen,SN,,0.0,Landkreis Sächsische Schweiz,14628.0,50.82655,13.625599999999999,4.0
DE,01768,"Glashütte, Reinhardtsgrimma, Bärenstein",Sachsen,SN,,0.0,Landkreis Sächsische Schweiz,14628.0,50.84866666666667,13.7776,4.0
DE,01773,Altenberg,Sachsen,SN,,0.0,Landkreis Sächsische Schweiz,14628.0,50.7656,13.7533,4.0
DE,01774,"Pretzschendorf, Höckendorf",Sachsen,SN,,0.0,Landkreis Sächsische Schweiz,14628.0,50.89955,13.55705,4.0
DE,01776,Hermsdorf/Erzgebirge,Sachsen,SN,,0.0,Landkreis Sächsische Schweiz,14628.0,50.75,13.6333,4.0
DE,01778,Geising,Sachsen,SN,,0.0,Landkreis Sächsische Schweiz,14628.0,50.7574,13.7928,4.0
DE,01793,Agentur für Arbeit Pirna,Saxony,13,,,Landkreis Sächsische Schweiz,14628.0,50.9544,13.9414,
DE,01796,"Struppen, Pirna, Dohma",Sachsen,SN,,0.0,Landkreis Sächsische Schweiz,14628.0,50.93613333333334,13.962333333333333,4.0
DE,01809,"Heidenau, Dohna, Müglitztal",Sachsen,SN,,0.0,Landkreis Sächsische Schweiz,14628.0,50.94676666666667,13.847500000000002,4.0
DE,01814,"Reinhardtsdorf-Schöna, Rathmannsdorf, Porschdorf, Bad Schandau",Sachsen,SN,,0.0,Landkreis Sächsische Schweiz,14628.0,50.921025,14.155999999999999,4.0
DE,01816,Bad Gottleuba-Berggießhübel,Sachsen,SN,,0.0,Landkreis Sächsische Schweiz,14628.0,50.8583,13.95,4.0
DE,01819,Bahretal,Sachsen,SN,,0.0,Landkreis Sächsische Schweiz,14628.0,50.8875,13.9,4.0
DE,01824,"Königstein/Sächsische Schweiz, Gohrisch, Rosenthal-Bielatal, Rathen",Sachsen,SN,,0.0,Landkreis Sächsische Schweiz,14628.0,50.911525,14.083375,4.0
DE,01825,Liebstadt,Sachsen,SN,,0.0,Landkreis Sächsische Schweiz,14628.0,50.8642,13.8569,4.0
DE,01829,Stadt Wehlen,Sachsen,SN,,0.0,Landkreis Sächsische Schweiz,14628.0,50.9582,14.0309,4.0
DE,01833,"Stolpen, Dürrröhrsdorf-Dittersbach",Sachsen,SN,,0.0,Landkreis Sächsische Schweiz,14628.0,51.04115,14.0397,4.0
DE,01844,"Hohwald, Neustadt in Sachsen",Sachsen,SN,,0.0,Landkreis Sächsische Schweiz,14628.0,51.0364,14.22145,4.0
DE,01847,Lohmen,Sachsen,SN,,0.0,Landkreis Sächsische Schweiz,14628.0,50.9883,14.0027,4.0
DE,01848,Hohnstein,Sachsen,SN,,0.0,Landkreis Sächsische Schweiz,14628.0,50.9799,14.1141,4.0
DE,01855,"Sebnitz, Kirnitzschtal",Sachsen,SN,,0.0,Landkreis Sächsische Schweiz,14628.0,50.95935,14.26125,4.0
DE,01877,"Rammenau, Schmölln-Putzkau, Doberschau-Gaußig, Demitz-Thumitz, Bischofswerda",Sachsen,SN,,0.0,Landkreis Bautzen,14625.0,51.131600000000006,14.247899999999998,4.0
DE,01896,"Lichtenberg, Pulsnitz, Ohorn",Sachsen,SN,,0.0,Landkreis Bautzen,14625.0,51.1795,14.0092,4.0
DE,01900,"Bretnig-Hauswalde, Großröhrsdorf",Sachsen,SN,,0.0,Landkreis Bautzen,14625.0,51.14765,14.05125,4.0
DE,01904,"Steinigtwolmsdorf, Neukirch/Lausitz",Sachsen,SN,,0.0,Landkreis Bautzen,14625.0,51.0802,14.32665,4.0
DE,01906,Burkau,Sachsen,SN,,0.0,Landkreis Bautzen,14625.0,51.1758,14.1733,4.0
DE,01909,"Frankenthal, Großharthau",Sachsen,SN,,0.0,Landkreis Bautzen,14625.0,51.1191,14.104,4.0
DE,01917,Kamenz,Sachsen,SN,,0.0,Landkreis Bautzen,14625.0,51.268,14.0937,4.0
DE,01920,"Steina, Ralbitz-Rosenthal, Schönteichen, Haselbachtal, Elstra, Nebelschütz, Räckelwitz, Oßling, Crostwitz, Panschwitz-Kuckau",Sachsen,SN,,0.0,Landkreis Bautzen,14625.0,51.263,14.161330000000001,4.0
DE,01936,"Schwepnitz, Königsbrück, Haselbachtal, Oberlichtenau, Laußnitz, Neukirch, Großnaundorf, Straßgräbchen",Sachsen,SN,,0.0,Landkreis Bautzen,14625.0,51.26655,13.9678375,4.0
DE,01945,"Grünewald, Tettau, Guteborn, Hohenbocka, Hermsdorf, Kroppen, Ruhland, Lindenau, Schwarzbach",Brandenburg,BB,,0.0,Landkreis Oberspreewald-Lausitz,12066.0,51.41971111111111,13.878122222222222,4.0
DE,01968,"Senftenberg, Schipkau, Schipkau Hörlitz",Brandenburg,BB,,0.0,Landkreis Oberspreewald-Lausitz,12066.0,51.533566666666665,13.954833333333333,4.0
DE,01979,Lauchhammer,Brandenburg,BB,,0.0,Landkreis Oberspreewald-Lausitz,12066.0,51.4881,13.7662,4.0
DE,01983,"Neu-Seeland, Großräschen",Brandenburg,BB,,0.0,Landkreis Oberspreewald-Lausitz,12066.0,51.6045,14.0709,4.0
DE,01987,Schwarzheide,Brandenburg,BB,,0.0,Landkreis Oberspreewald-Lausitz,12066.0,51.4767,13.8556,4.0
DE,01990,"Großkmehlen, Ortrand, Frauendorf",Brandenburg,BB,,0.0,Landkreis Oberspreewald-Lausitz,12066.0,51.3896,13.751466666666667,4.0
DE,01993,"Schipkau, Schipkau Schipkau",Brandenburg,BB,,0.0,Landkreis Oberspreewald-Lausitz,12066.0,51.52785,13.905100000000001,4.0
DE,01994,"Schipkau, Schipkau Annahütte, Karl-Marx-Siedlung, Schipkau Meuro, Schipkau Annahütte, Annahütte, Schipkau Annahütte, Annahütte-Siedlung, Schipkau Annahütte, Herrnnmühle, Schipkau Drochow, Schipkau Annahütte",Brandenburg,BB,,0.0,Landkreis Oberspreewald-Lausitz,12066.0,51.5590125,13.896275,4.0
DE,01996,Hosena,Brandenburg,BB,,0.0,Landkreis Oberspreewald-Lausitz,12066.0,51.4547,14.0251,4.0
DE,01998,"Schipkau, Schipkau Meuro, Schipkau Klettwitz",Brandenburg,BB,,0.0,Landkreis Oberspreewald-Lausitz,12066.0,51.54606666666667,13.911966666666666,4.0
DE,02619,Agentur für Arbeit Bautzen,Saxony,13,,,Landkreis Bautzen,14625.0,51.1551,14.4329,
DE,02620,Landratsamt Bautzen,Saxony,13,,,Landkreis Bautzen,14625.0,51.1757,14.4294,
DE,02621,Finanzamt Bautzen,Saxony,13,,,Landkreis Bautzen,14625.0,51.1823,14.4278,
DE,02625,Bautzen,Sachsen,SN,,0.0,Landkreis Bautzen,14625.0,51.1825,14.4292,4.0
DE,02627,"Weißenberg, Radibor, Kubschütz, Hochkirch",Sachsen,SN,,0.0,Landkreis Bautzen,14625.0,51.189225,14.531925000000001,4.0
DE,02633,"Göda, Doberschau-Gaußig",Sachsen,SN,,0.0,Landkreis Bautzen,14625.0,51.15985,14.3384,4.0
DE,02643,Deutsche Post AG Briefzentrum Bautzen,Saxony,13,,,Landkreis Bautzen,14625.0,51.1904,14.4587,
DE,02681,"Wilthen, Schirgiswalde, Crostau, Kirschau",Sachsen,SN,,0.0,Landkreis Bautzen,14625.0,51.087925,14.426375,4.0
DE,02689,Sohland an der Spree,Sachsen,SN,,0.0,Landkreis Bautzen,14625.0,51.0471,14.4298,
DE,02692,"Eulowitz, Doberschau-Gaußig, Großpostwitz/Oberlausitz, Obergurig",Sachsen,SN,,0.0,Landkreis Bautzen,14625.0,51.125725,14.4172,4.0
DE,02694,"Malschwitz, Großdubrau, Guttau",Sachsen,SN,,0.0,Landkreis Bautzen,14625.0,51.25026666666667,14.513966666666667,4.0
DE,02699,"Neschwitz, Puschwitz, Königswartha",Sachsen,SN,,0.0,Landkreis Bautzen,14625.0,51.27863333333334,14.319366666666667,4.0
DE,02708,"Großschweidnitz, Lawalde, Schönbach, Obercunnersdorf, Kittlitz, Niedercunnersdorf, Löbau, Dürrhennersdorf, Rosenbach",Sachsen,SN,,0.0,Landkreis Görlitz,14626.0,51.07467777777778,14.647022222222224,4.0
DE,02727,Neugersdorf,Sachsen,SN,,0.0,Landkreis Görlitz,14626.0,50.9773,14.6088,4.0
DE,02730,Ebersbach/Sachsen,Sachsen,SN,,0.0,Landkreis Görlitz,14626.0,51.0167,14.5833,
DE,02733,Cunewalde,Sachsen,SN,,0.0,Landkreis Bautzen,14625.0,51.1,14.5167,4.0
DE,02736,"Beiersdorf, Oppach",Sachsen,SN,,0.0,Landkreis Görlitz,14626.0,51.07035,14.51915,4.0
DE,02739,Eibau,Sachsen,SN,,0.0,Landkreis Görlitz,14626.0,50.9827,14.6621,4.0
DE,02742,"Neusalza-Spremberg, Friedersdorf",Sachsen,SN,,0.0,Landkreis Görlitz,14626.0,51.03185,14.549050000000001,4.0
DE,02747,"Herrnhut, Berthelsdorf, Strahwalde, Großhennersdorf",Sachsen,SN,,0.0,Landkreis Görlitz,14626.0,51.01475,14.7531,4.0
DE,02748,Bernstadt auf dem Eigen,Sachsen,SN,,0.0,Landkreis Görlitz,14626.0,51.05,14.85,
DE,02763,"Mittelherwigsdorf, Zittau, Bertsdorf-Hörnitz",Sachsen,SN,,0.0,Landkreis Görlitz,14626.0,50.9001,14.770433333333335,4.0
DE,02779,"Hainewalde, Großschönau",Sachsen,SN,,0.0,Landkreis Görlitz,14626.0,50.90505,14.6936,4.0
DE,02782,Seifhennersdorf,Sachsen,SN,,0.0,Landkreis Görlitz,14626.0,50.9349,14.6019,4.0
DE,02785,Olbersdorf,Sachsen,SN,,0.0,Landkreis Görlitz,14626.0,50.873,14.7704,4.0
DE,02788,"Schlegel, Hirschfelde Dittelsdorf, Hirschfelde",Sachsen,SN,,0.0,Landkreis Görlitz,14626.0,50.95740000000001,14.881766666666666,4.0
DE,02791,Oderwitz,Sachsen,SN,,0.0,Landkreis Görlitz,14626.0,50.9583,14.7083,4.0
DE,02794,Leutersdorf,Sachsen,SN,,0.0,Landkreis Görlitz,14626.0,50.95,14.65,4.0
DE,02796,Jonsdorf,Sachsen,SN,,0.0,Landkreis Görlitz,14626.0,50.85,14.7,4.0
DE,02797,Oybin,Sachsen,SN,,0.0,Landkreis Görlitz,14626.0,50.85,14.75,4.0
DE,02799,Waltersdorf,Sachsen,SN,,0.0,Landkreis Görlitz,14626.0,50.8703,14.6503,4.0
DE,02826,Görlitz,Sachsen,SN,,0.0,Landkreis Görlitz,14626.0,51.1503,14.9829,4.0
DE,02827,Görlitz,Sachsen,SN,,0.0,Landkreis Görlitz,14626.0,51.149,14.9534,4.0
DE,02828,Görlitz,Sachsen,SN,,0.0,Landkreis Görlitz,14626.0,51.1687,14.9693,4.0
DE,02829,"Schöpstal, Neißeaue, Königshain, Markersdorf",Sachsen,SN,,0.0,Landkreis Görlitz,14626.0,51.187475,14.874025,4.0
DE,02894,"Sohland am Rotstein, Reichenbach/Oberlausitz, Vierkirchen",Sachsen,SN,,0.0,Landkreis Görlitz,14626.0,51.153099999999995,14.777099999999999,4.0
DE,02899,"Ostritz, Schönau-Berzdorf auf dem Eigen",Sachsen,SN,,0.0,Landkreis Görlitz,14626.0,51.0406,14.9153,4.0
DE,02906,"Mücka, Hohendubrau, Klitten, Niesky, Quitzdorf am See, Waldhufen, Kreba-Neudorf",Sachsen,SN,,0.0,Landkreis Görlitz,14626.0,51.2947,14.721114285714284,4.0
DE,02923,"Neißeaue, Kodersdorf, Hähnichen, Horka",Sachsen,SN,,0.0,Landkreis Görlitz,14626.0,51.289525,14.8768,4.0
DE,02929,Rothenburg/Oberlausitz,Sachsen,SN,,0.0,Landkreis Görlitz,14626.0,51.3635,14.9461,4.0
DE,02943,"Boxberg/Oberlausitz, Weißwasser",Sachsen,SN,,0.0,Landkreis Görlitz,14626.0,51.452,14.60345,4.0
DE,02953,"Gablenz, Bad Muskau",Sachsen,SN,,0.0,Landkreis Görlitz,14626.0,51.5419,14.68955,4.0
DE,02956,Rietschen,Sachsen,SN,,0.0,Landkreis Görlitz,14626.0,51.4,14.7833,4.0
DE,02957,"Krauschwitz, Weißkeißel",Sachsen,SN,,0.0,Landkreis Görlitz,14626.0,51.5078,14.71365,4.0
DE,02959,"Schleife, Groß Düben, Trebendorf",Sachsen,SN,,0.0,Landkreis Görlitz,14626.0,51.54443333333333,14.55556666666667,4.0
DE,02977,Hoyerswerda,Sachsen,SN,,0.0,Landkreis Bautzen,14625.0,51.4379,14.2355,4.0
DE,02979,"Elsterheide, Spreetal",Sachsen,SN,,0.0,Landkreis Bautzen,14625.0,51.50835,14.2667,4.0
DE,02991,"Elsterheide, Leippe-Torno, Lauta",Sachsen,SN,,0.0,Landkreis Bautzen,14625.0,51.45973333333333,14.115533333333333,4.0
DE,02994,"Wiednitz, Bernsdorf",Sachsen,SN,,0.0,Landkreis Bautzen,14625.0,51.3798,14.04785,4.0
DE,02997,Wittichenau,Sachsen,SN,,0.0,Landkreis Bautzen,14625.0,51.385,14.244,4.0
DE,02999,"Lohsa, Knappensee, Uhyst",Sachsen,SN,,0.0,Landkreis Bautzen,14625.0,51.371566666666666,14.4094,4.0
DE,03039,Agentur für Arbeit Cottbus,Brandenburg,11,,,Kreisfreie Stadt Cottbus,12052.0,51.7591,14.328,
DE,03042,Cottbus,Brandenburg,BB,,0.0,Kreisfreie Stadt Cottbus,12052.0,51.7612,14.3544,4.0
DE,03044,Cottbus,Brandenburg,BB,,0.0,Kreisfreie Stadt Cottbus,12052.0,51.7754,14.3374,4.0
DE,03046,Cottbus,Brandenburg,BB,,0.0,Kreisfreie Stadt Cottbus,12052.0,51.756,14.3197,4.0
DE,03048,Cottbus,Brandenburg,BB,,0.0,Kreisfreie Stadt Cottbus,12052.0,51.7403,14.3198,4.0
DE,03050,Cottbus,Brandenburg,BB,,0.0,Kreisfreie Stadt Cottbus,12052.0,51.7324,14.3347,4.0
DE,03051,Cottbus,Brandenburg,BB,,0.0,Kreisfreie Stadt Cottbus,12052.0,51.7667,14.3333,4.0
DE,03052,Cottbus,Brandenburg,BB,,0.0,Kreisfreie Stadt Cottbus,12052.0,51.7667,14.3333,4.0
DE,03053,Cottbus,Brandenburg,BB,,0.0,Kreisfreie Stadt Cottbus,12052.0,51.7667,14.3333,4.0
DE,03054,Cottbus,Brandenburg,BB,,0.0,Kreisfreie Stadt Cottbus,12052.0,51.7667,14.3333,4.0
DE,03055,Cottbus,Brandenburg,BB,,0.0,Kreisfreie Stadt Cottbus,12052.0,51.7667,14.3333,4.0
DE,03058,"Frauendorf, Gablenz, Koppatz, Klein Döbbern, Kathlow, Kiekebusch, Sergen, Groß Oßnig, Groß Döbbern, Laubsdorf, Haasow, Gallinchen, Komptendorf, Neuhausen, Roggosen, Groß Gaglow",Brandenburg,BB,,0.0,Landkreis Spree-Neiße,12071.0,51.696375,14.41245625,4.0
DE,03065,Deutsche Post AG Niederlassung BRIEF Cottbus,Brandenburg,11,,,Kreisfreie Stadt Cottbus,12052.0,51.767,14.3801,
DE,03075,Landwirtschaftskammer Nordr./Westf Abt. Tierseuchenkasse,Nordrhein-Westfalen,07,Regierungsbezirk Münster,55.0,Kreisfreie Stadt Münster,5515.0,51.9873,7.6339,
DE,03096,"Guhrow, Briesen, Werben, Burg (Spreewald), Schmogrow-Fehrow, Dissen-Striesow",Brandenburg,BB,,0.0,Landkreis Spree-Neiße,12071.0,51.82541666666666,14.220583333333332,4.0
DE,03099,Kolkwitz,Brandenburg,BB,,0.0,Landkreis Spree-Neiße,12071.0,51.75,14.25,4.0
DE,03103,"Neu-Seeland, Neupetershain",Brandenburg,BB,,0.0,Landkreis Oberspreewald-Lausitz,12066.0,51.6147,14.148,4.0
DE,03116,Drebkau,Brandenburg,BB,,0.0,Landkreis Spree-Neiße,12071.0,51.6541,14.2232,4.0
DE,03119,Welzow,Brandenburg,BB,,0.0,Landkreis Spree-Neiße,12071.0,51.5838,14.1708,4.0
DE,03130,"Bagenz, Lieskau, Wolfshain, Groß Luja, Haidemühl, Türkendorf, Graustein, Reuthen, Tschernitz, Proschim, Spremberg, Drieschnitz-Kahsel, Felixsee, Hornow-Wadelsdorf, Jämlitz-Klein Düben",Brandenburg,BB,,0.0,Landkreis Spree-Neiße,12071.0,51.59120666666667,14.4656,4.0
DE,03139,Terpe,Brandenburg,BB,,0.0,Landkreis Spree-Neiße,12071.0,51.5667,14.3667,
DE,03149,"Groß Schacksdorf-Simmersdorf, Wiesengrund, Forst (Lausitz)",Brandenburg,BB,,0.0,Landkreis Spree-Neiße,12071.0,51.70896666666667,14.5921,4.0
DE,03159,"Neiße-Malxetal, Wiesengrund, Döbern",Brandenburg,BB,,0.0,Landkreis Spree-Neiße,12071.0,51.651966666666674,14.593800000000002,4.0
DE,03172,"Atterwasch, Gastrose-Kerkwitz, Lutzketal, Pinnow-Heideland, Grießen, Guben, Grabko, Bärenklau",Brandenburg,BB,,0.0,Landkreis Spree-Neiße,12071.0,51.9310125,14.610225,4.0
DE,03185,"Turnow-Preilack, Grötsch, Teichland, Peitz, Heinersbrück, Tauer, Drachhausen, Drehnow",Brandenburg,BB,,0.0,Landkreis Spree-Neiße,12071.0,51.8511375,14.426775,4.0
DE,03197,"Jänschwalde, Drewitz",Brandenburg,BB,,0.0,Landkreis Spree-Neiße,12071.0,51.87865,14.5042,4.0
DE,03202,Luckow-Petershagen,Brandenburg,BB,,0.0,Landkreis Uckermark,12073.0,53.2435,14.2573,
DE,03205,"Groß-Mehßow, Calau, Saßleben, Werchow, Ogrosen, Bolschwitz, Kemmen, Mlode, Bronkow, Luckaitztal, Lipten, Bischdorf, Laasow, Missen, Lug",Brandenburg,BB,,0.0,Landkreis Oberspreewald-Lausitz,12066.0,51.719833333333334,13.968773333333333,4.0
DE,03222,"Kittlitz, Klein Radden, Ragow, Groß Beuchow, Hindenberg, Boblitz, Lübbenau/Spreewald, Groß-Klessow",Brandenburg,BB,,0.0,Landkreis Oberspreewald-Lausitz,12066.0,51.8534375,13.91765,4.0
DE,03226,"Raddusch, Vetschau, Suschow, Leipe, Koßwig",Brandenburg,BB,,0.0,Landkreis Oberspreewald-Lausitz,12066.0,51.80724,14.05696,4.0
DE,03229,"Altdöbern, Luckaitztal",Brandenburg,BB,,0.0,Landkreis Oberspreewald-Lausitz,12066.0,51.666650000000004,14.01665,4.0
DE,03238,"Gröbitz, Fischwasser, Massen, Lichterfeld, Staupitz, Dollenchen, Gorden, Oppelhain, Münchhausen, Finsterwalde, Gruhno, Lieskau, Schacksdorf, Lindthal, Lindena, Rückersdorf, Lugau, Eichholz-Drößig, Sallgast, Ponnsdorf, Schadewitz, Betten, Göllnitz",Brandenburg,BB,,0.0,Landkreis Elbe-Elster,12062.0,51.606478260869565,13.687804347826088,4.0
DE,03246,"Babben, Gahro, Crinitz",Brandenburg,BB,,0.0,Landkreis Elbe-Elster,12062.0,51.72796666666667,13.758966666666666,4.0
DE,03249,"Breitenau, Sonnewalde, Kleinkrausnik, Pahlsdorf, Bahren, Goßmar, Großkrausnik, Zeckerin",Brandenburg,BB,,0.0,Landkreis Elbe-Elster,12062.0,51.7084,13.658999999999999,4.0
DE,03253,"Werenzhain, Trebbus, Frankena, Buchhain, Hennersdorf, Tröbitz, Schönewalde, Doberlug-Kirchhain, Schilda, Brenitz, Nexdorf, Prießen, Schönborn, Friedersdorf, Arenzhain, Dübrichen",Brandenburg,BB,,0.0,Landkreis Elbe-Elster,12062.0,51.652074999999996,13.504425,4.0
DE,04022,Sächsische Aufbaubank,Saxony,13,,,Kreisfreie Stadt Dresden,14612.0,51.0466,13.7492,
DE,04024,KEBA Gesellschaft für interne Services mbH,Saxony,13,,,Landkreis Nordsachsen,14730.0,51.3987,12.198,
DE,04056,Deutsche Post E-Post Solutions GmbH,Saxony,13,,,Kreisfreie Stadt Leipzig,14713.0,51.3514,12.4041,
DE,04063,IKK classic Hauptverwaltung,Saxony,13,,,Kreisfreie Stadt Dresden,14612.0,51.0732,13.7602,
DE,04064,IKK classic Hauptverwaltung,Saxony,13,,,Kreisfreie Stadt Dresden,14612.0,51.0732,13.7602,
DE,04079,"Deutsche Post AG, GB Vertrieb BRIEF GWK Direkt Marketing Center",Saxony,13,,,Kreisfreie Stadt Leipzig,14713.0,51.3441,12.3944,
DE,04080,"Universität Leipzig, Bereich Medizin",Saxony,13,,,Kreisfreie Stadt Leipzig,14713.0,51.3314,12.3866,
DE,04081,Universität Leipzig,Saxony,13,,,Kreisfreie Stadt Leipzig,14713.0,51.3381,12.3791,
DE,04082,KEBA Gesellschaft für interne Services mbH,Saxony,13,,,Landkreis Nordsachsen,14730.0,51.3987,12.198,
DE,04083,Deutsche Bank AG Airport Business Center Leipzig-Halle,Saxony,13,,,Kreisfreie Stadt Leipzig,14713.0,51.3364,12.3747,
DE,04084,Allianz Versicherungs-AG Zweigniederlassung Leipzig,Saxony,13,,,Kreisfreie Stadt Leipzig,14713.0,51.3342,12.3956,
DE,04086,Agentur für Arbeit Leipzig,Saxony,13,,,Kreisfreie Stadt Leipzig,14713.0,51.3748,12.3232,
DE,04087,AOK PLUS - Die Gesundheitskasse für Sachsen und Thüringen,Saxony,13,,,Kreisfreie Stadt Leipzig,14713.0,51.3413,12.3579,
DE,04088,Leipziger Verlags- und Druckereigesellschaft mbH & Co. KG,Saxony,13,,,Kreisfreie Stadt Leipzig,14713.0,51.3321,12.3746,
DE,04089,Norisbank GmbH,Saxony,13,,,Landkreis Nordsachsen,14730.0,51.3987,12.198,
DE,04091,Industrie- u. Handelskammer zu Leipzig,Saxony,13,,,Kreisfreie Stadt Leipzig,14713.0,51.3433,12.3693,
DE,04092,Stadt Leipzig Neues Rathaus,Saxony,13,,,Kreisfreie Stadt Leipzig,14713.0,51.335,12.3714,
DE,04095,"Deutsche Telekom AG, T-Com, TI NL Mitte Ost",Saxony,13,,,Kreisfreie Stadt Leipzig,14713.0,51.3386,12.3848,
DE,04097,HUK-Coburg,Saxony,13,,,Kreisfreie Stadt Leipzig,14713.0,51.3407,12.3856,
DE,04103,Leipzig,Sachsen,SN,,0.0,Kreisfreie Stadt Leipzig,14713.0,51.3405,12.3827,4.0
DE,04105,Leipzig,Sachsen,SN,,0.0,Kreisfreie Stadt Leipzig,14713.0,51.3489,12.3688,4.0
DE,04107,Leipzig,Sachsen,SN,,0.0,Kreisfreie Stadt Leipzig,14713.0,51.3667,12.3833,4.0
DE,04109,Leipzig,Sachsen,SN,,0.0,Kreisfreie Stadt Leipzig,14713.0,51.342,12.375,4.0
DE,04129,Leipzig,Sachsen,SN,,0.0,Kreisfreie Stadt Leipzig,14713.0,51.3674,12.3909,4.0
DE,04150,Vet Med Labor GmbH Division of IDEXX Laboratories,Saxony,13,,,Kreisfreie Stadt Leipzig,14713.0,51.3782,12.3119,
DE,04151,Deutsche Rentenversicherung Mitteldeutschland,Saxony,13,,,Kreisfreie Stadt Leipzig,14713.0,51.3748,12.3232,
DE,04155,Leipzig,Sachsen,SN,,0.0,Kreisfreie Stadt Leipzig,14713.0,51.3667,12.3833,4.0
DE,04157,Leipzig,Sachsen,SN,,0.0,Kreisfreie Stadt Leipzig,14713.0,51.3775,12.3599,4.0
DE,04158,Breitenfeld,Sachsen,SN,,0.0,Kreisfreie Stadt Leipzig,14713.0,51.4035,12.3418,4.0
DE,04159,Leipzig,Sachsen,SN,,0.0,Kreisfreie Stadt Leipzig,14713.0,51.3717,12.3321,4.0
DE,04160,Fressnapf Tiernahrungs GmbH,Nordrhein-Westfalen,07,Düsseldorf District,51.0,Kreisfreie Stadt Krefeld,5114.0,51.3402,6.6526,
DE,04177,Leipzig,Sachsen,SN,,0.0,Kreisfreie Stadt Leipzig,14713.0,51.3425,12.323,4.0
DE,04178,Burghausen,Sachsen,SN,,0.0,Kreisfreie Stadt Leipzig,14713.0,51.3566,12.2643,4.0
DE,04179,Leipzig,Sachsen,SN,,0.0,Kreisfreie Stadt Leipzig,14713.0,51.329,12.3115,4.0
DE,04205,Leipzig,Sachsen,SN,,0.0,Kreisfreie Stadt Leipzig,14713.0,51.3209,12.2793,4.0
DE,04207,Leipzig,Sachsen,SN,,0.0,Kreisfreie Stadt Leipzig,14713.0,51.312,12.3077,4.0
DE,04209,Leipzig,Sachsen,SN,,0.0,Kreisfreie Stadt Leipzig,14713.0,51.3148,12.2912,4.0
DE,04227,Mey & Edlich,Saxony,13,,,Kreisfreie Stadt Leipzig,14713.0,51.3297,12.3459,
DE,04229,Leipzig,Sachsen,SN,,0.0,Kreisfreie Stadt Leipzig,14713.0,51.3254,12.3341,4.0
DE,04249,Leipzig,Sachsen,SN,,0.0,Kreisfreie Stadt Leipzig,14713.0,51.3667,12.3833,4.0
DE,04275,Leipzig,Sachsen,SN,,0.0,Kreisfreie Stadt Leipzig,14713.0,51.3667,12.3833,4.0
DE,04277,Leipzig,Sachsen,SN,,0.0,Kreisfreie Stadt Leipzig,14713.0,51.3667,12.3833,4.0
DE,04279,Leipzig,Sachsen,SN,,0.0,Kreisfreie Stadt Leipzig,14713.0,51.3667,12.3833,4.0
DE,04288,Leipzig,Sachsen,SN,,0.0,Kreisfreie Stadt Leipzig,14713.0,51.3667,12.3833,4.0
DE,04289,Leipzig,Sachsen,SN,,0.0,Kreisfreie Stadt Leipzig,14713.0,51.3667,12.3833,4.0
DE,04299,Leipzig,Sachsen,SN,,0.0,Kreisfreie Stadt Leipzig,14713.0,51.3667,12.3833,4.0
DE,04310,DAVASO GmbH,Saxony,13,,,Kreisfreie Stadt Leipzig,14713.0,51.3301,12.4406,
DE,04311,DAVASO GmbH,Saxony,13,,,Kreisfreie Stadt Leipzig,14713.0,51.3301,12.4406,
DE,04312,DAVASO GmbH,Saxony,13,,,Kreisfreie Stadt Leipzig,14713.0,51.3301,12.4406,
DE,04315,Leipzig,Sachsen,SN,,0.0,Kreisfreie Stadt Leipzig,14713.0,51.3667,12.3833,4.0
DE,04316,Leipzig,Sachsen,SN,,0.0,Kreisfreie Stadt Leipzig,14713.0,51.3667,12.3833,4.0
DE,04317,Leipzig,Sachsen,SN,,0.0,Kreisfreie Stadt Leipzig,14713.0,51.3329,12.4047,4.0
DE,04318,Leipzig,Sachsen,SN,,0.0,Kreisfreie Stadt Leipzig,14713.0,51.3332,12.4195,4.0
DE,04319,Leipzig,Sachsen,SN,,0.0,Kreisfreie Stadt Leipzig,14713.0,51.3667,12.3833,4.0
DE,04328,Sellerhausen-Stünz,Sachsen,SN,,0.0,Kreisfreie Stadt Leipzig,14713.0,51.348,12.4313,4.0
DE,04329,Leipzig,Sachsen,SN,,0.0,Kreisfreie Stadt Leipzig,14713.0,51.3667,12.3833,4.0
DE,04347,Leipzig,Sachsen,SN,,0.0,Kreisfreie Stadt Leipzig,14713.0,51.3637,12.4312,4.0
DE,04349,Leipzig,Sachsen,SN,,0.0,Kreisfreie Stadt Leipzig,14713.0,51.3667,12.3833,4.0
DE,04350,BMW,Saxony,13,,,Kreisfreie Stadt Leipzig,14713.0,51.4092,12.4474,
DE,04356,Leipzig,Sachsen,SN,,0.0,Kreisfreie Stadt Leipzig,14713.0,51.3667,12.3833,4.0
DE,04357,Leipzig,Sachsen,SN,,0.0,Kreisfreie Stadt Leipzig,14713.0,51.3667,12.3833,4.0
DE,04360,Mitteldeutscher Rundfunk Zentrale Leipzig,Saxony,13,,,Kreisfreie Stadt Leipzig,14713.0,51.3156,12.3832,
DE,04365,ista Shared services GmbH,Saxony,13,,,Kreisfreie Stadt Leipzig,14713.0,51.4012,12.4038,
DE,04370,"Deutsche Post AG Niederlassung BRIEF Leipzig, Deutsche Post DHL, Deutsche Post AG Service Niederlassung / IT-Infrastruktur Servicegruppe Leipzig, DHL Delivery Leipzig GmbH, Deutsche Post AG SNL GSA Halle ASt Arbeitssicherheit Halle",Saxony,13,,,Kreisfreie Stadt Leipzig,14713.0,51.41322,12.29068,
DE,04416,Markkleeberg,Sachsen,SN,,0.0,Landkreis Leipzig,14729.0,51.2755,12.3691,4.0
DE,04420,"Großlehna, Markranstädt",Sachsen,SN,,0.0,Landkreis Leipzig,14729.0,51.304199999999994,12.19605,4.0
DE,04425,Taucha,Sachsen,SN,,0.0,Landkreis Nordsachsen,14730.0,51.3833,12.4833,4.0
DE,04435,Schkeuditz,Sachsen,SN,,0.0,Landkreis Nordsachsen,14730.0,51.3968,12.2214,4.0
DE,04442,Zwenkau,Sachsen,SN,,0.0,Landkreis Leipzig,14729.0,51.2187,12.3301,4.0
DE,04451,Borsdorf,Sachsen,SN,,0.0,Landkreis Leipzig,14729.0,51.35,12.5333,4.0
DE,04460,Kitzen,Sachsen,SN,,0.0,Landkreis Leipzig,14729.0,51.2217,12.2235,4.0
DE,04463,Großpösna,Sachsen,SN,,0.0,Landkreis Leipzig,14729.0,51.2667,12.5,4.0
DE,04509,"Zschortau, Zwochau, Krostitz, Löbnitz, Wiedemar, Delitzsch, Döbernitz, Neukyhna, Schönwölkau",Sachsen,SN,,0.0,Landkreis Nordsachsen,14730.0,51.50405555555555,12.352,4.0
DE,04519,Rackwitz,Sachsen,SN,,0.0,Landkreis Nordsachsen,14730.0,51.4333,12.3833,4.0
DE,04523,"Elstertrebnitz, Pegau",Sachsen,SN,,0.0,Landkreis Leipzig,14729.0,51.15855,12.24235,4.0
DE,04539,Groitzsch,Sachsen,SN,,0.0,Landkreis Leipzig,14729.0,51.1554,12.2828,4.0
DE,04550,Landkreis Leipzig,Saxony,13,,,Landkreis Leipzig,14729.0,51.1189,12.4899,
DE,04552,"Borna, Wyhratal, Lobstädt",Sachsen,SN,,0.0,Landkreis Leipzig,14729.0,51.116600000000005,12.488333333333335,4.0
DE,04564,Böhlen,Sachsen,SN,,0.0,Landkreis Leipzig,14729.0,51.2006,12.3862,4.0
DE,04565,Regis-Breitingen,Sachsen,SN,,0.0,Landkreis Leipzig,14729.0,51.0888,12.4384,4.0
DE,04567,Kitzscher,Sachsen,SN,,0.0,Landkreis Leipzig,14729.0,51.1644,12.5526,4.0
DE,04571,Rötha,Sachsen,SN,,0.0,Landkreis Leipzig,14729.0,51.1978,12.4145,4.0
DE,04574,"Deutzen, Heuersdorf",Sachsen,SN,,0.0,Landkreis Leipzig,14729.0,51.11515,12.40805,4.0
DE,04575,Neukieritzsch,Sachsen,SN,,0.0,Landkreis Leipzig,14729.0,51.1499,12.4109,4.0
DE,04579,Espenhain,Sachsen,SN,,0.0,Landkreis Leipzig,14729.0,51.1893,12.4789,4.0
DE,04600,Altenburg,Thüringen,TH,,0.0,Altenburger Land,16077.0,50.9876,12.4368,4.0
DE,04603,"Göhren, Nobitz, Saara, Windischleuba",Thüringen,TH,,0.0,Altenburger Land,16077.0,50.972825,12.4357,4.0
DE,04610,"Meuselwitz, Wintersdorf",Thüringen,TH,,0.0,Altenburger Land,16077.0,51.05485,12.352699999999999,4.0
DE,04613,Lucka,Thüringen,TH,,0.0,Altenburger Land,16077.0,51.0973,12.3334,4.0
DE,04617,"Lödla, Großröda, Monstab, Treben, Haselbach, Naundorf, Gerstenberg, Rositz, Starkenberg, Kriebitzsch, Tegkwitz, Fockendorf",Thüringen,TH,,0.0,Altenburger Land,16077.0,51.014633333333336,12.368450000000001,4.0
DE,04618,"Langenleuba-Niederhain, Göpfersdorf, Frohnsdorf, Jückelberg, Ziegelheim",Thüringen,TH,,0.0,Altenburger Land,16077.0,50.935140000000004,12.588519999999999,4.0
DE,04626,"Mehna, Heukewalde, Schmölln, Altkirchen, Jonaswalde, Lumpzig, Nöbdenitz, Vollmershain, Wildenbörten, Dobitschen, Drogen, Göllnitz, Posterstein, Löbichau, Thonhausen",Thüringen,TH,,0.0,Altenburger Land,16077.0,50.89718666666667,12.301946666666668,4.0
DE,04639,Gößnitz,Thüringen,TH,,0.0,Altenburger Land,16077.0,50.889,12.4329,4.0
DE,04643,Geithain,Sachsen,SN,,0.0,Landkreis Leipzig,14729.0,51.0553,12.6967,4.0
DE,04651,"Eulatal, Bad Lausick",Sachsen,SN,,0.0,Landkreis Leipzig,14729.0,51.1225,12.6389,4.0
DE,04654,Frohburg,Sachsen,SN,,0.0,Landkreis Leipzig,14729.0,51.0572,12.5575,4.0
DE,04655,Kohren-Sahlis,Sachsen,SN,,0.0,Landkreis Leipzig,14729.0,51.0188,12.6042,4.0
DE,04657,Narsdorf,Sachsen,SN,,0.0,Landkreis Leipzig,14729.0,51.0167,12.7167,4.0
DE,04668,"Otterwisch, Grimma, Großbardau, Großbothen, Thümmlitzwalde, Parthenstein",Sachsen,SN,,0.0,Landkreis Leipzig,14729.0,51.21068333333333,12.723883333333333,4.0
DE,04680,"Colditz, Zschadraß",Sachsen,SN,,0.0,Landkreis Leipzig,14729.0,51.13075,12.80985,4.0
DE,04683,"Belgershain, Naunhof",Sachsen,SN,,0.0,Landkreis Leipzig,14729.0,51.2555,12.56915,4.0
DE,04685,Nerchau,Sachsen,SN,,0.0,Landkreis Leipzig,14729.0,51.2709,12.7891,4.0
DE,04687,Trebsen/Mulde,Sachsen,SN,,0.0,Landkreis Leipzig,14729.0,51.2833,12.75,4.0
DE,04688,Mutzschen,Sachsen,SN,,0.0,Landkreis Leipzig,14729.0,51.2616,12.8913,4.0
DE,04703,"Bockelwitz, Gersdorf, Leisnig",Sachsen,SN,,0.0,Landkreis Mittelsachsen,14522.0,51.15633333333333,12.941,4.0
DE,04720,"Ebersbach, Mochau, Großweitzschen, Ziegra-Knobelsdorf, Zschaitz-Ottewig, Döbeln",Sachsen,SN,,0.0,Landkreis Mittelsachsen,14522.0,51.129933333333334,13.121216666666667,4.0
DE,04736,Waldheim,Sachsen,SN,,0.0,Landkreis Mittelsachsen,14522.0,51.0728,13.02,4.0
DE,04741,"Niederstriegis, Roßwein",Sachsen,SN,,0.0,Landkreis Mittelsachsen,14522.0,51.07415,13.1662,4.0
DE,04746,Hartha,Sachsen,SN,,0.0,Landkreis Mittelsachsen,14522.0,51.0986,12.9739,4.0
DE,04749,Ostrau,Sachsen,SN,,0.0,Landkreis Mittelsachsen,14522.0,51.2,13.1667,4.0
DE,04756,Agentur für Arbeit Oschatz,Saxony,13,,,Landkreis Nordsachsen,14730.0,51.2987,13.1193,
DE,04758,"Cavertitz, Oschatz, Liebschützberg",Sachsen,SN,,0.0,Landkreis Nordsachsen,14730.0,51.33886666666666,13.133966666666666,4.0
DE,04769,"Sornzig-Ablaß, Naundorf, Mügeln",Sachsen,SN,,0.0,Landkreis Nordsachsen,14730.0,51.23853333333333,13.056833333333335,4.0
DE,04774,Dahlen,Sachsen,SN,,0.0,Landkreis Nordsachsen,14730.0,51.3649,12.9988,4.0
DE,04779,Wermsdorf,Sachsen,SN,,0.0,Landkreis Nordsachsen,14730.0,51.2833,12.95,4.0
DE,04808,"Thallwitz, Wurzen, Kühren-Burkartshain, Hohburg, Falkenhain",Sachsen,SN,,0.0,Landkreis Leipzig,14729.0,51.39206,12.797839999999999,4.0
DE,04821,Brandis,Sachsen,SN,,0.0,Landkreis Leipzig,14729.0,51.336,12.6102,4.0
DE,04824,Beucha,Sachsen,SN,,0.0,Landkreis Leipzig,14729.0,51.3231,12.5622,4.0
DE,04827,Machern,Sachsen,SN,,0.0,Landkreis Leipzig,14729.0,51.3667,12.6333,4.0
DE,04828,Bennewitz,Sachsen,SN,,0.0,Landkreis Leipzig,14729.0,51.3607,12.7138,4.0
DE,04838,"Doberschütz, Eilenburg, Laußig, Mockrehna, Jesewitz, Zschepplin",Sachsen,SN,,0.0,Landkreis Nordsachsen,14730.0,51.49103333333333,12.654133333333334,4.0
DE,04849,"Kossa, Bad Düben",Sachsen,SN,,0.0,Landkreis Nordsachsen,14730.0,51.60225,12.66285,4.0
DE,04855,Landratsamt Nordsachsen,Saxony,13,,,Landkreis Nordsachsen,14730.0,51.559,13.0077,
DE,04860,"Pflückuff, Zinna, Torgau, Dreiheide",Sachsen,SN,,0.0,Landkreis Nordsachsen,14730.0,51.549800000000005,12.962975,4.0
DE,04862,Mockrehna,Sachsen,SN,,0.0,Landkreis Nordsachsen,14730.0,51.5,12.8,4.0
DE,04874,Belgern,Sachsen,SN,,0.0,Landkreis Nordsachsen,14730.0,51.4826,13.1238,4.0
DE,04880,"Trossin, Elsnig, Dommitzsch",Sachsen,SN,,0.0,Landkreis Nordsachsen,14730.0,51.62253333333334,12.8748,4.0
DE,04886,"Arzberg, Beilrode, Großtreben-Zwethau",Sachsen,SN,,0.0,Landkreis Nordsachsen,14730.0,51.566599999999994,13.070400000000001,4.0
DE,04889,Schildau,Sachsen,SN,,0.0,Landkreis Nordsachsen,14730.0,51.4572,12.9302,4.0
DE,04895,Falkenberg/Elster,Brandenburg,BB,,0.0,Landkreis Elbe-Elster,12062.0,51.5875,13.2364,4.0
DE,04910,"Haida, Elsterwerda",Brandenburg,BB,,0.0,Landkreis Elbe-Elster,12062.0,51.46985,13.49395,4.0
DE,04916,"Stolzenhain, Herzberg (Elster), Wildberg, Themesgrund, Werchau, Heideeck",Brandenburg,BB,,0.0,Landkreis Elbe-Elster,12062.0,51.781483333333334,13.246683333333332,4.0
DE,04924,"Bad Liebenwerda, Uebigau-Wahrenbrück",Brandenburg,BB,,0.0,Landkreis Elbe-Elster,12062.0,51.5175,13.363949999999999,4.0
DE,04928,"Kahla, Schraden, Döllingen, Plessa",Brandenburg,BB,,0.0,Landkreis Elbe-Elster,12062.0,51.460875,13.61655,4.0
DE,04931,Mühlberg (Elbe),Brandenburg,BB,,0.0,Landkreis Elbe-Elster,12062.0,51.4333,13.2167,
DE,04932,"Merzdorf, Reichenhain, Hirschfeld, Prösen, Wainsdorf, Saathain, Großthiemig, Gröden",Brandenburg,BB,,0.0,Landkreis Elbe-Elster,12062.0,51.4142875,13.541662500000001,4.0
DE,04934,"Dreska, Hohenleipisch",Brandenburg,BB,,0.0,Landkreis Elbe-Elster,12062.0,51.49265,13.544,4.0
DE,04936,"Proßmarke, Frankenhain, Wehrhain, Lebusa, Körba, Hillmersdorf, Malitschkendorf, Hohenbucko, Naundorf, Kolochau, Jagsal, Freileben, Ölsig, Schöna-Kolpien, Schlieben, Stechau",Brandenburg,BB,,0.0,Landkreis Elbe-Elster,12062.0,51.73744375,13.41295,4.0
DE,04938,Uebigau-Wahrenbrück,Brandenburg,BB,,0.0,Landkreis Elbe-Elster,12062.0,51.5167,13.3333,
DE,06073,Familienkasse Sachsen-Anhalt-Thüringen,Saxony-Anhalt,14,,,Kreisfreie Stadt Halle,15002.0,51.4972,11.9667,
DE,06075,Mediengruppe Mitteldeutsche Zeitung GmbH & Co.KG,Saxony-Anhalt,14,,,Kreisfreie Stadt Halle,15002.0,51.4788,11.9878,
DE,06076,envia Mitteldeutsche Energie AG Hauptdirektion Sachsen-Anhalt,Saxony-Anhalt,14,,,Kreisfreie Stadt Halle,15002.0,51.4821,11.9832,
DE,06077,IHK Halle-Dessau,Saxony-Anhalt,14,,,Kreisfreie Stadt Halle,15002.0,51.4783,11.9796,
DE,06089,Agentur für Arbeit Sachsen-Anhalt Süd,Saxony-Anhalt,14,,,Kreisfreie Stadt Halle,15002.0,51.5078,11.9644,
DE,06090,Agentur für Arbeit Sachsen-Anhalt Süd,Saxony-Anhalt,14,,,Kreisfreie Stadt Halle,15002.0,51.5078,11.9644,
DE,06091,BKK für Heilberufe,Saxony-Anhalt,14,,,Kreisfreie Stadt Halle,15002.0,51.4853,12.0027,
DE,06092,Deutsche Rentenversicherung Mitteldeutschland,Saxony-Anhalt,14,,,Kreisfreie Stadt Halle,15002.0,51.4962,11.9825,
DE,06094,AOK Sachsen - Anhalt,Saxony-Anhalt,14,,,Kreisfreie Stadt Halle,15002.0,51.4865,11.9613,
DE,06095,Amtsgericht,Saxony-Anhalt,14,,,Kreisfreie Stadt Halle,15002.0,51.469,11.9852,
DE,06097,Universitätsklinikum Medizinische Fakultät der Martin-Luther-Universität,Saxony-Anhalt,14,,,Kreisfreie Stadt Halle,15002.0,51.5003,11.9335,
DE,06098,Uni- u. Landesbibliothek Sachsen/Anhalt,Saxony-Anhalt,14,,,Kreisfreie Stadt Halle,15002.0,51.4899,11.9696,
DE,06099,Martin-Luther-Universität Halle-Wittenberg,Saxony-Anhalt,14,,,Kreisfreie Stadt Halle,15002.0,51.4847,11.9655,
DE,06100,Stadt Halle,Saxony-Anhalt,14,,,Kreisfreie Stadt Halle,15002.0,51.4825,11.9715,
DE,06103,Finanzämter in Halle ( Saale),Saxony-Anhalt,14,,,Kreisfreie Stadt Halle,15002.0,51.4807,11.9657,
DE,06104,"Druck- und Lederfarben Halle(Saale) GmbH, Agrotechnic Handelsgesellschaft mbH Niederlassung Halle",Saxony-Anhalt,14,,,Kreisfreie Stadt Halle,15002.0,51.430099999999996,11.99135,
DE,06105,Jobcenter Halle (Saale),Saxony-Anhalt,14,,,Kreisfreie Stadt Halle,15002.0,51.4812,11.9252,
DE,06106,"Datenverarbeitungszentrum Halle GmbH, Victoria-Versicherungen",Saxony-Anhalt,14,,,Kreisfreie Stadt Halle,15002.0,51.4866,11.930250000000001,
DE,06108,Halle,Sachsen-Anhalt,ST,,0.0,Kreisfreie Stadt Halle,15002.0,51.483,11.972,4.0
DE,06110,Halle,Sachsen-Anhalt,ST,,0.0,Kreisfreie Stadt Halle,15002.0,51.4701,11.9675,4.0
DE,06112,Halle,Sachsen-Anhalt,ST,,0.0,Kreisfreie Stadt Halle,15002.0,51.4753,11.9973,4.0
DE,06114,Halle,Sachsen-Anhalt,ST,,0.0,Kreisfreie Stadt Halle,15002.0,51.5034,11.9622,4.0
DE,06116,Halle,Sachsen-Anhalt,ST,,0.0,Kreisfreie Stadt Halle,15002.0,51.4862,12.0283,4.0
DE,06118,Halle,Sachsen-Anhalt,ST,,0.0,Kreisfreie Stadt Halle,15002.0,51.5175,11.971,4.0
DE,06120,"Halle, Lieskau",Sachsen-Anhalt,ST,,0.0,Kreisfreie Stadt Halle,15002.0,51.5082,11.8838,4.0
DE,06122,Halle,Sachsen-Anhalt,ST,,0.0,Kreisfreie Stadt Halle,15002.0,51.4804,11.9215,
DE,06124,Halle,Sachsen-Anhalt,ST,,0.0,Kreisfreie Stadt Halle,15002.0,51.4796,11.937,4.0
DE,06126,Halle,Sachsen-Anhalt,ST,,0.0,Kreisfreie Stadt Halle,15002.0,51.5,12.0,4.0
DE,06128,Halle,Sachsen-Anhalt,ST,,0.0,Kreisfreie Stadt Halle,15002.0,51.4507,11.9493,4.0
DE,06130,Halle,Sachsen-Anhalt,ST,,0.0,Kreisfreie Stadt Halle,15002.0,51.441,11.9856,4.0
DE,06132,Halle,Sachsen-Anhalt,ST,,0.0,Kreisfreie Stadt Halle,15002.0,51.4348,11.9815,
DE,06144,Apotheke Zur Rose Offizin,Saxony-Anhalt,14,,,Kreisfreie Stadt Halle,15002.0,51.4695,11.9908,
DE,06145,Deutsche Post AG NL Betrieb Leipzig Betrieb Halle,Saxony-Anhalt,14,,,Saalekreis,15088.0,51.5254,12.104,
DE,06146,HUK-Coburg,Saxony-Anhalt,14,,,Kreisfreie Stadt Halle,15002.0,51.4695,11.9833,
DE,06147,Zur Rose Pharma Abt. VfG,Saxony-Anhalt,14,,,Kreisfreie Stadt Halle,15002.0,51.4695,11.9908,
DE,06179,"Teutschenthal, Bennstedt, Schkopau, Langenbogen, Steuden, Holleben, Zappendorf, Schkopau Hohenweiden, Schochwitz, Angersdorf, Dornstedt, Höhnstedt, Zscherben",Sachsen-Anhalt,ST,,0.0,Saalekreis,15088.0,51.45953076923077,11.835476923076923,4.0
DE,06184,"Dölbau, Gröbers, Schkopau Lochau, Schkopau, Großkugel, Dieskau, Schkopau Ermlitz, Schkopau Döllnitz, Schkopau Raßnitz, Schkopau Röglitz, Schkopau Burgliebenau",Sachsen-Anhalt,ST,,0.0,Saalekreis,15088.0,51.41214545454545,12.085445454545454,4.0
DE,06188,"Queis, Niemberg, Landsberg, Hohenthurm, Sietzsch, Reußen, Braschwitz, Peißen, Brachstedt, Oppin, Spickendorf, Schwerz",Sachsen-Anhalt,ST,,0.0,Saalekreis,15088.0,51.527224999999994,12.099866666666665,4.0
DE,06193,"Morl, Plötz, Petersberg, Gutenberg, Wallwitz, Ostrau, Löbejün, Krosigk, Sennewitz, Kütten, Teicha, Nehlitz, Mösthinsdorf, Nauendorf",Sachsen-Anhalt,ST,,0.0,Saalekreis,15088.0,51.59159285714286,11.953057142857144,4.0
DE,06198,"Brachwitz, Beesenstedt, Gimritz, Dößel, Fienstedt, Wettin, Döblitz, Kloschwitz, Neutz-Lettewitz, Salzmünde",Sachsen-Anhalt,ST,,0.0,Saalekreis,15088.0,51.56951,11.81511,4.0
DE,06217,"Geusa, Beuna, Merseburg",Sachsen-Anhalt,ST,,0.0,Saalekreis,15088.0,51.33686666666667,11.960999999999999,4.0
DE,06231,"Oebles-Schlechtewitz, Kreypau, Kötzschau, Bad Dürrenberg, Nempitz, Rodden, Tollwitz",Sachsen-Anhalt,ST,,0.0,Saalekreis,15088.0,51.300714285714285,12.100842857142856,4.0
DE,06237,"Leuna, Spergau",Sachsen-Anhalt,ST,,0.0,Saalekreis,15088.0,51.30565,12.019400000000001,4.0
DE,06242,"Krumpa, Roßbach, Großkayna, Braunsbedra",Sachsen-Anhalt,ST,,0.0,Saalekreis,15088.0,51.283575,11.890425,4.0
DE,06246,"Bad Lauchstädt, Delitz am Berge, Knapendorf, Klobikau, Milzau",Sachsen-Anhalt,ST,,0.0,Saalekreis,15088.0,51.38084,11.88816,4.0
DE,06249,Mücheln (Geiseltal),Sachsen-Anhalt,ST,,0.0,Saalekreis,15088.0,51.3,11.8,4.0
DE,06252,"Douglas Holding AG, Heinrich Deichmann Schuhe GmbH u. Co. KG, C & A Mode GmbH u. Co., Apollo Optik GmbH, Christ Juweliere und Uhrmacher, Orsay Botiquen GmbH, Hunkemöller, Höffner Möbelgeschäft, Klier GmbH, UCI Multiplex GmbH, Ludwig Görtz",Saxony-Anhalt,14,,,Saalekreis,15088.0,51.3473,12.169,
DE,06254,"Zöschen, Günthersdorf, Kötschlitz, Zweimen, Wallendorf, Friedensdorf, Horburg-Maßlau, Luppenau",Sachsen-Anhalt,ST,,0.0,Saalekreis,15088.0,51.3580625,12.12045,4.0
DE,06255,"Schafstädt, Wünsch",Sachsen-Anhalt,ST,,0.0,Saalekreis,15088.0,51.36565,11.784849999999999,4.0
DE,06258,"Schkopau Korbetha, Schkopau Schkopau, Schkopau",Sachsen-Anhalt,ST,,0.0,Saalekreis,15088.0,51.4,11.998766666666667,4.0
DE,06259,Frankleben,Sachsen-Anhalt,ST,,0.0,Saalekreis,15088.0,51.3114,11.9293,4.0
DE,06268,"Nemsdorf-Göhrendorf, Steigra, Schmon, Obhausen, Grockstädt, Querfurt, Langeneichstädt, Weißenschirmbach, Leimbach, Vitzenburg, Barnstädt, Oechlitz, Ziegelroda, Albersroda",Sachsen-Anhalt,ST,,0.0,Saalekreis,15088.0,51.33665714285714,11.620857142857144,4.0
DE,06279,"Farnstädt, Alberstedt, Schraplau, Esperstedt",Sachsen-Anhalt,ST,,0.0,Saalekreis,15088.0,51.435575,11.6347,4.0
DE,06291,Finanzamt Eisleben,Saxony-Anhalt,14,,,Mansfeld-Südharz,15087.0,51.5191,11.5506,
DE,06295,"Bornstedt, Hedersleben, Dederstedt, Rothenschirmbach, Lutherstadt Eisleben, Wolferode, Rottelsdorf, Osterhausen, Volkstedt, Hornburg, Bischofrode, Schmalzerode, Burgsdorf, Polleben, Unterrißdorf, Neehausen",Sachsen-Anhalt,ST,,0.0,Mansfeld-Südharz,15087.0,51.51866875,11.5826125,4.0
DE,06308,"Klostermansfeld, Hübitz, Siersleben, Annarode, Siebigerode, Benndorf, Augsdorf",Sachsen-Anhalt,ST,,0.0,Mansfeld-Südharz,15087.0,51.58125714285715,11.498657142857143,4.0
DE,06311,Helbra,Sachsen-Anhalt,ST,,0.0,Mansfeld-Südharz,15087.0,51.55,11.5,4.0
DE,06313,"Ahlsdorf, Wimmelburg, Hergisdorf",Sachsen-Anhalt,ST,,0.0,Mansfeld-Südharz,15087.0,51.53313333333333,11.485633333333332,4.0
DE,06317,"Röblingen am See, Aseleben, Amsdorf, Stedten, Erdeborn, Lüttchendorf, Seeburg",Sachsen-Anhalt,ST,,0.0,Mansfeld-Südharz,15087.0,51.474828571428574,11.677171428571429,4.0
DE,06318,Wansleben am See,Sachsen-Anhalt,ST,,0.0,Mansfeld-Südharz,15087.0,51.4667,11.75,4.0
DE,06333,"Endorf, Sylda, Arnstedt, Greifenhagen, Wiederstedt, Welbsleben, Welfesholz, Harkerode, Neuplatendorf, Walbeck, Ritterode, Bräunrode, Quenstedt, Hettstedt",Sachsen-Anhalt,ST,,0.0,Landkreis Harz,15085.0,51.67091428571429,11.448635714285714,4.0
DE,06343,"Biesenrode, Vatterode, Möllendorf, Gorenzen, Mansfeld, Piskaborn",Sachsen-Anhalt,ST,,0.0,Mansfeld-Südharz,15087.0,51.58686666666667,11.399966666666666,4.0
DE,06347,"Ihlewitz, Freist, Gerbstedt, Friedeburg, Zabenstedt, Heiligenthal, Friedeburgerhütte",Sachsen-Anhalt,ST,,0.0,Mansfeld-Südharz,15087.0,51.622371428571434,11.678242857142857,4.0
DE,06348,Großörner,Sachsen-Anhalt,ST,,0.0,Mansfeld-Südharz,15087.0,51.6153,11.4898,4.0
DE,06359,Landkreis Anhalt-Bitterfeld,Saxony-Anhalt,14,,,Anhalt-Bitterfeld,15082.0,51.7321,11.9776,
DE,06366,Köthen,Sachsen-Anhalt,ST,,0.0,Anhalt-Bitterfeld,15082.0,51.7519,11.9709,4.0
DE,06369,"Zabitz, Radegast, Görzig, Großbadegast, Wörbzig, Cösitz, Riesdorf, Reupzig, Wulfen, Trinum, Löbnitz an der Linde, Dornbock, Cosa, Arensdorf, Wülknitz, Glauzig, Weißandt-Gölzau, Dohndorf, Diebzig, Schortewitz, Großpaschleben, Prosigk, Drosa, Zehbitz, Trebbichau an der Fuhne",Sachsen-Anhalt,ST,,0.0,Anhalt-Bitterfeld,15082.0,51.723764,11.988208,4.0
DE,06385,Aken,Sachsen-Anhalt,ST,,0.0,Anhalt-Bitterfeld,15082.0,51.8527,12.0446,4.0
DE,06386,"Fraßdorf, Meilendorf, Reppichau, Hinsdorf, Micheln, Elsnigk, Chörau, Libbesdorf, Quellendorf, Osternienburg, Scheuder",Sachsen-Anhalt,ST,,0.0,Anhalt-Bitterfeld,15082.0,51.77092727272727,12.084318181818183,4.0
DE,06388,"Piethen, Baasdorf, Maasdorf, Gröbzig, Wieskau, Edderitz",Sachsen-Anhalt,ST,,0.0,Anhalt-Bitterfeld,15082.0,51.68203333333333,11.9367,4.0
DE,06400,Salzlandkreis,Saxony-Anhalt,14,,,Salzlandkreis,15089.0,51.7953,11.7447,
DE,06406,Bernburg,Sachsen-Anhalt,ST,,0.0,Salzlandkreis,15089.0,51.7946,11.7401,4.0
DE,06408,"Baalberge, Gröna, Poley, Ilberstedt, Wohlsdorf, Biendorf, Preußlitz, Cörmigk, Aderstedt, Peißen, Latdorf",Sachsen-Anhalt,ST,,0.0,Salzlandkreis,15089.0,51.764718181818175,11.782054545454544,4.0
DE,06420,"Zickeritz, Lebendorf, Edlau, Rothenburg, Gerlebogk, Wiendorf, Domnitz, Könnern, Golbitz",Sachsen-Anhalt,ST,,0.0,Salzlandkreis,15089.0,51.672533333333334,11.79521111111111,4.0
DE,06425,"Beesenlaublingen, Belleben, Alsleben (Saale), Strenznaundorf, Schackstedt, Plötzkau",Sachsen-Anhalt,ST,,0.0,Salzlandkreis,15089.0,51.70425,11.665133333333332,4.0
DE,06429,"Pobzig, Wedlitz, Nienburg (Saale), Gerbitz, Neugattersleben",Sachsen-Anhalt,ST,,0.0,Salzlandkreis,15089.0,51.843,11.78142,4.0
DE,06449,"Aschersleben Klein Schierstedt, Aschersleben Winningen, Schadeleben, Groß Schierstedt, Wilsleben, Neu Königsaue, Schackenthal, Friedrichsaue, Aschersleben Aschersleben, Giersleben, Cochstedt, Westdorf, Aschersleben",Sachsen-Anhalt,ST,,0.0,Salzlandkreis,15089.0,51.790238461538465,11.458223076923076,4.0
DE,06456,"Mehringen, Freckleben, Drohndorf, Sandersleben",Sachsen-Anhalt,ST,,0.0,Salzlandkreis,15089.0,51.7057,11.5396,4.0
DE,06458,"Hedersleben, Heteborn, Hausneindorf, Wedderstedt",Sachsen-Anhalt,ST,,0.0,Landkreis Harz,15085.0,51.858025,11.2646,4.0
DE,06463,"Ermsleben, Reinstedt, Meisdorf, Radisleben",Sachsen-Anhalt,ST,,0.0,Landkreis Harz,15085.0,51.73495,11.322025,4.0
DE,06464,Frose,Sachsen-Anhalt,ST,,0.0,Salzlandkreis,15089.0,51.7958,11.3791,4.0
DE,06466,Gatersleben,Sachsen-Anhalt,ST,,0.0,Salzlandkreis,15089.0,51.8221,11.2866,4.0
DE,06467,Hoym,Sachsen-Anhalt,ST,,0.0,Salzlandkreis,15089.0,51.7829,11.3124,4.0
DE,06469,Nachterstedt,Sachsen-Anhalt,ST,,0.0,Salzlandkreis,15089.0,51.8008,11.3349,4.0
DE,06484,"Quedlinburg, Ditfurt, Westerhausen",Sachsen-Anhalt,ST,,0.0,Landkreis Harz,15085.0,51.8158,11.180166666666667,4.0
DE,06493,"Ballenstedt, Straßberg, Dankerode, Königerode, Harzgerode, Schielo, Neudorf",Sachsen-Anhalt,ST,,0.0,Landkreis Harz,15085.0,51.61924285714286,11.147400000000001,4.0
DE,06502,"Thale, Weddersleben, Neinstedt, Warnstedt",Sachsen-Anhalt,ST,,0.0,Landkreis Harz,15085.0,51.759375,11.0679,4.0
DE,06507,"Friedrichsbrunn, Stecklenberg, Güntersberge, Allrode, Gernrode, Siptenfelde, Rieder, Timmenrode, Bad Suderode",Sachsen-Anhalt,ST,,0.0,Landkreis Harz,15085.0,51.70213333333333,11.051577777777778,4.0
DE,06526,"Wippra, Sangerhausen",Sachsen-Anhalt,ST,,0.0,Mansfeld-Südharz,15087.0,51.5226,11.28515,4.0
DE,06528,"Sotterhausen, Gonna, Martinsrieth, Emseloh, Horla, Kleinleinungen, Edersleben, Wettelrode, Hackpfüffel, Brücken, Obersdorf, Grillenberg, Pölsfeld, Holdenstedt, Wallhausen, Morungen, Blankenheim, Riestedt, Drebsdorf, Rotha, Großleinungen, Beyernaumburg, Riethnordhausen, Oberröblingen, Lengefeld, Hainrode, Breitenbach, Liedersdorf",Sachsen-Anhalt,ST,,0.0,Mansfeld-Südharz,15087.0,51.48625,11.277742857142856,4.0
DE,06536,"Bennungen, Rottleberode, Berga, Questenberg, Hayn, Wolfsberg, Roßla, Breitungen, Wickerode, Uftrungen, Dietersdorf",Sachsen-Anhalt,ST,,0.0,Mansfeld-Südharz,15087.0,51.50130000000001,11.059772727272728,4.0
DE,06537,"Tilleda, Kelbra",Sachsen-Anhalt,ST,,0.0,Mansfeld-Südharz,15087.0,51.42775,11.09105,4.0
DE,06542,"Nienstedt, Winkel, Mittelhausen, Wolferstedt, Niederröblingen, Katharinenrieth, Allstedt",Sachsen-Anhalt,ST,,0.0,Mansfeld-Südharz,15087.0,51.4206,11.404914285714286,4.0
DE,06543,"Braunschwende, Molmerswende, Ulzigerode, Pansfelde, Wieserode, Stangerode, Alterode, Abberode, Friesdorf, Hermerode, Ritzgerode",Sachsen-Anhalt,ST,,0.0,Mansfeld-Südharz,15087.0,51.63456363636363,11.308363636363636,4.0
DE,06547,"Breitenstein, Schwenda, Stolberg (Harz)",Sachsen-Anhalt,ST,,0.0,Mansfeld-Südharz,15087.0,51.582233333333335,10.972499999999998,4.0
DE,06553,Bußgeldstelle,Thuringia,15,,,Kyffhäuserkreis,16065.0,51.3665,11.2944,
DE,06556,"Reinsdorf, Voigtstedt, Artern, Kalbsrieth, Schönewerda, Heygendorf, Mönchpfiffel-Nikolausrieth, Borxleben, Bretleben, Ringleben, Ichstedt",Thüringen,TH,,0.0,Kyffhäuserkreis,16065.0,51.36118181818181,11.289572727272727,4.0
DE,06567,"Bad Frankenhausen, Esperstedt",Thüringen,TH,,0.0,Kyffhäuserkreis,16065.0,51.351699999999994,11.1394,4.0
DE,06571,"Roßleben, Wiehe, Nausitz, Gehofen, Donndorf",Thüringen,TH,,0.0,Kyffhäuserkreis,16065.0,51.29964,11.37466,4.0
DE,06577,"Heldrungen, Hemleben, Hauteroda, Oberheldrungen, Etzleben, Gorsleben",Thüringen,TH,,0.0,Kyffhäuserkreis,16065.0,51.27401666666666,11.219883333333334,4.0
DE,06578,"Bilzingsleben, Oldisleben, Kannawurf",Thüringen,TH,,0.0,Landkreis Sömmerda,16068.0,51.286566666666666,11.1237,4.0
DE,06618,"Utenbach, Molau, Pödelist, Naumburg, Löbitz, Görschen, Mertendorf, Casekirchen, Leislau, Janisroda, Wethau, Gieckau, Prießnitz, Schönburg",Sachsen-Anhalt,ST,,0.0,Burgenlandkreis,15084.0,51.11371428571429,11.834607142857141,4.0
DE,06628,"Abtlöbnitz, Taugwitz, Crölpa-Löbschütz, Taugwitz Spielberg, Taugwitz Taugwitz, Möllern, Bad Kösen",Sachsen-Anhalt,ST,,0.0,Burgenlandkreis,15084.0,51.1245,11.682942857142857,4.0
DE,06632,"Zeuchfeld, Branderoda, Größnitz, Gröst, Freyburg, Schleberoda, Balgstädt, Ebersroda, Baumersroda, Gleina",Sachsen-Anhalt,ST,,0.0,Burgenlandkreis,15084.0,51.23785,11.7711,4.0
DE,06636,"Burgscheidungen, Kirchscheidungen, Golzen, Laucha, Weischütz, Hirschroda",Sachsen-Anhalt,ST,,0.0,Burgenlandkreis,15084.0,51.22733333333333,11.66805,4.0
DE,06638,Karsdorf,Sachsen-Anhalt,ST,,0.0,Burgenlandkreis,15084.0,51.2713,11.6577,4.0
DE,06642,"Wohlmirstedt, Altenroda, Reinsdorf, Memleben, Nebra, Bucha, Wangen",Sachsen-Anhalt,ST,,0.0,Burgenlandkreis,15084.0,51.26314285714285,11.535714285714286,4.0
DE,06647,"Thalwinkel, Lossa, Bad Bibra, Steinburg, Burkersroda, Kahlwinkel, Wischroda, Billroda, Saubach, Klosterhäseler",Sachsen-Anhalt,ST,,0.0,Burgenlandkreis,15084.0,51.19788,11.53861,4.0
DE,06648,"Eckartsberga, Herrengosserstedt, Tromsdorf, Burgholzhausen",Sachsen-Anhalt,ST,,0.0,Burgenlandkreis,15084.0,51.129425,11.509425,4.0
DE,06667,"Storkau, Reichardtswerben, Tagewerben, Pretzsch, Stößen, Prittitz, Weißenfels, Gröbitz, Uichteritz, Burgwerben, Markwerben, Leißling, Langendorf, Goseck",Sachsen-Anhalt,ST,,0.0,Burgenlandkreis,15084.0,51.186864285714286,11.9362,4.0
DE,06679,"Granschütz, Muschwitz, Zorbau, Taucha, Webau, Hohenmölsen",Sachsen-Anhalt,ST,,0.0,Burgenlandkreis,15084.0,51.1824,12.074966666666667,4.0
DE,06682,"Werschen, Schelkau, Trebnitz, Krauschwitz, Nessa, Deuben, Teuchern, Gröben",Sachsen-Anhalt,ST,,0.0,Burgenlandkreis,15084.0,51.118575,12.030775,4.0
DE,06686,"Röcken, Poserna, Rippach, Großgörschen, Sössen, Starsiedel, Lützen, Dehlitz",Sachsen-Anhalt,ST,,0.0,Burgenlandkreis,15084.0,51.2274625,12.106075,4.0
DE,06688,"Wengelsdorf, Schkortleben, Großkorbetha",Sachsen-Anhalt,ST,,0.0,Burgenlandkreis,15084.0,51.26146666666667,12.029866666666665,4.0
DE,06712,"Geußnitz, Grana, Zeitz, Schellbach, Breitenbach, Draschwitz, Würchwitz, Wittgendorf, Könderitz, Bergisdorf, Döschwitz, Haynsburg, Bornitz, Kretzschau, Droßdorf, Heuckewalde, Göbitz",Sachsen-Anhalt,ST,,0.0,Burgenlandkreis,15084.0,51.03506470588235,12.139394117647058,4.0
DE,06721,"Meineweh, Goldschau, Unterkaka, Waldau, Osterfeld",Sachsen-Anhalt,ST,,0.0,Burgenlandkreis,15084.0,51.0746,11.94308,4.0
DE,06722,"Weickelsdorf, Kleinhelmsdorf, Wetterzeube, Droyßig",Sachsen-Anhalt,ST,,0.0,Burgenlandkreis,15084.0,51.032,11.981875,4.0
DE,06724,"Bröckau, Kayna, Spora, Weißenborn",Sachsen-Anhalt,ST,,0.0,Burgenlandkreis,15084.0,51.003524999999996,12.17695,4.0
DE,06725,"Reuden, Profen",Sachsen-Anhalt,ST,,0.0,Burgenlandkreis,15084.0,51.118300000000005,12.2057,4.0
DE,06727,"Luckenau, Nonnewitz, Döbris, Theißen",Sachsen-Anhalt,ST,,0.0,Burgenlandkreis,15084.0,51.096275,12.111475,4.0
DE,06729,"Langendorf, Rehmsdorf, Tröglitz",Sachsen-Anhalt,ST,,0.0,Burgenlandkreis,15084.0,51.06856666666667,12.218200000000001,4.0
DE,06731,Bitterfeld-Wolfen,Sachsen-Anhalt,ST,,0.0,Anhalt-Bitterfeld,15082.0,51.6229,12.2677,
DE,06749,"Friedersdorf, Bitterfeld",Sachsen-Anhalt,ST,,0.0,Anhalt-Bitterfeld,15082.0,51.63295,12.336200000000002,4.0
DE,06766,"Bobbau, Wolfen, Thalheim, Rödgen",Sachsen-Anhalt,ST,,0.0,Anhalt-Bitterfeld,15082.0,51.660475000000005,12.238700000000001,4.0
DE,06773,"Gröbern, Jüdenberg, Radis, Selbitz, Gräfenhainichen, Kemberg Klitzschena, Rotta, Uthausen, Gossa, Schköna, Kemberg, Kemberg Bergwitz",Sachsen-Anhalt,ST,,0.0,Anhalt-Bitterfeld,15082.0,51.752633333333335,12.52205,4.0
DE,06774,"Plodda, Tornau, Pouch, Schwemsal, Rösa, Schlaitz, Mühlbeck, Krina, Söllichau",Sachsen-Anhalt,ST,,0.0,Anhalt-Bitterfeld,15082.0,51.63878888888889,12.492111111111111,4.0
DE,06779,"Thurland, Salzfurtkapelle, Schierau, Retzau, Tornau, Raguhn, Marke",Sachsen-Anhalt,ST,,0.0,Anhalt-Bitterfeld,15082.0,51.71991428571429,12.243428571428572,4.0
DE,06780,"Stumsdorf, Löberitz, Spören, Göttnitz, Großzöberitz, Schrenz, Sandersdorf, Quetzdölsdorf, Zörbig, Sandersdorf Heideloh",Sachsen-Anhalt,ST,,0.0,Anhalt-Bitterfeld,15082.0,51.618550000000006,12.13373,4.0
DE,06785,"Horstdorf, Oranienbaum, Schleesen, Brandhorst, Kakau",Sachsen-Anhalt,ST,,0.0,Landkreis Wittenberg,15091.0,51.80326,12.433060000000001,4.0
DE,06786,"Gohrau, Wörlitz, Rehsen, Vockerode, Griesen, Riesigk",Sachsen-Anhalt,ST,,0.0,Landkreis Wittenberg,15091.0,51.83156666666667,12.440583333333334,4.0
DE,06791,"Möhlau, Zschornewitz",Sachsen-Anhalt,ST,,0.0,Landkreis Wittenberg,15091.0,51.72355,12.3764,4.0
DE,06792,"Sandersdorf, Sandersdorf Sandersdorf",Sachsen-Anhalt,ST,,0.0,Anhalt-Bitterfeld,15082.0,51.62665,12.253350000000001,4.0
DE,06794,"Sandersdorf Renneritz, Sandersdorf Ramsin, Sandersdorf Zscherndorf, Sandersdorf, Glebitzsch",Sachsen-Anhalt,ST,,0.0,Anhalt-Bitterfeld,15082.0,51.60996,12.23294,4.0
DE,06796,Brehna,Sachsen-Anhalt,ST,,0.0,Anhalt-Bitterfeld,15082.0,51.5579,12.2128,4.0
DE,06800,"Jeßnitz, Altjeßnitz",Sachsen-Anhalt,ST,,0.0,Anhalt-Bitterfeld,15082.0,51.6873,12.3106,4.0
DE,06803,Greppin,Sachsen-Anhalt,ST,,0.0,Anhalt-Bitterfeld,15082.0,51.6468,12.3007,4.0
DE,06804,"Muldenstein, Burgkemnitz",Sachsen-Anhalt,ST,,0.0,Anhalt-Bitterfeld,15082.0,51.67785,12.3732,4.0
DE,06808,Holzweißig,Sachsen-Anhalt,ST,,0.0,Anhalt-Bitterfeld,15082.0,51.5982,12.3084,4.0
DE,06809,"Roitzsch, Petersroda",Sachsen-Anhalt,ST,,0.0,Anhalt-Bitterfeld,15082.0,51.5728,12.27625,4.0
DE,06838,Agentur für Arbeit Sachsen-Anhalt Ost,Saxony-Anhalt,14,,,Dessau-Roßlau,15001.0,51.841,12.2316,
DE,06839,"Agentur für Arbeit Sachsen-Anhalt Ost, Regierungspräsidium Dessau",Saxony-Anhalt,14,,,Dessau-Roßlau,15001.0,51.83845,12.219750000000001,
DE,06842,Dessau,Sachsen-Anhalt,ST,,0.0,Dessau-Roßlau,15001.0,51.8231,12.2598,4.0
DE,06844,Dessau,Sachsen-Anhalt,ST,,0.0,Dessau-Roßlau,15001.0,51.8441,12.2475,4.0
DE,06846,Dessau,Sachsen-Anhalt,ST,,0.0,Dessau-Roßlau,15001.0,51.8333,12.25,4.0
DE,06847,Dessau,Sachsen-Anhalt,ST,,0.0,Dessau-Roßlau,15001.0,51.8221,12.1917,4.0
DE,06849,Dessau,Sachsen-Anhalt,ST,,0.0,Dessau-Roßlau,15001.0,51.8083,12.241,4.0
DE,06861,Dessau-Roßlau,Sachsen-Anhalt,ST,,0.0,Dessau-Roßlau,15001.0,51.8333,12.25,4.0
DE,06862,"Roßlau, Rodleben, Brambach",Sachsen-Anhalt,ST,,0.0,Dessau-Roßlau,15001.0,51.90813333333333,12.218033333333333,4.0
DE,06868,"Serno, Bräsen, Stackelitz, Thießen, Hundeluft, Jeber-Bergfrieden, Ragösen",Sachsen-Anhalt,ST,,0.0,Landkreis Wittenberg,15091.0,51.98057142857142,12.351714285714285,4.0
DE,06869,"Coswig, Klieken, Düben, Möllensdorf, Griebo, Köselitz, Zieko, Senst, Buko, Cobbelsdorf, Wörpen",Sachsen-Anhalt,ST,,0.0,Landkreis Wittenberg,15091.0,51.924654545454544,12.469109090909091,4.0
DE,06886,Lutherstadt Wittenberg,Sachsen-Anhalt,ST,,0.0,Landkreis Wittenberg,15091.0,51.8744,12.606,
DE,06888,"Dietrichsdorf, Dabrun, Mochau, Zörnigall, Eutzsch, Abtsdorf, Mühlanger",Sachsen-Anhalt,ST,,0.0,Landkreis Wittenberg,15091.0,51.86474285714286,12.718842857142858,4.0
DE,06889,Lutherstadt Wittenberg,Sachsen-Anhalt,ST,,0.0,Landkreis Wittenberg,15091.0,51.8744,12.606,
DE,06895,"Zahna, Bülzig, Rahnsdorf, Boßdorf, Kropstädt, Leetza",Sachsen-Anhalt,ST,,0.0,Landkreis Wittenberg,15091.0,51.93225,12.76255,4.0
DE,06896,"Schmilkendorf, Nudersdorf, Straach",Sachsen-Anhalt,ST,,0.0,Landkreis Wittenberg,15091.0,51.9367,12.607999999999999,4.0
DE,06901,"Schnellin, Dorna, Rackith, Kemberg, Globig-Bleddin, Wartenburg, Ateritz, Kemberg Kemberg",Sachsen-Anhalt,ST,,0.0,Landkreis Wittenberg,15091.0,51.780325,12.6955625,4.0
DE,06905,"Korgau, Meuro, Bad Schmiedeberg",Sachsen-Anhalt,ST,,0.0,Landkreis Wittenberg,15091.0,51.69413333333333,12.726066666666668,4.0
DE,06909,"Priesitz, Trebitz, Pretzsch/Elbe",Sachsen-Anhalt,ST,,0.0,Landkreis Wittenberg,15091.0,51.723400000000005,12.791766666666668,4.0
DE,06917,"Jessen (Elster) Leipa, Jessen (Elster) Kleinkorga, Jessen (Elster) Neuerstadt, Jessen (Elster) Schweinitz, Klöden, Jessen (Elster) Grabo, Jessen (Elster) Lindwerder, Jessen (Elster) Morxdorf, Jessen (Elster) Kremitz, Jessen (Elster) Linda, Jessen (Elster) Buschkuhnsdorf, Jessen (Elster) Mellnitz, Jessen (Elster) Battin, Jessen (Elster) Klossa, Jessen (Elster) Rade, Jessen (Elster) Lüttchenseyda, Jessen (Elster) Großkorga, Jessen (Elster) Steinsdorf, Jessen (Elster) Gentha, Jessen (Elster) Schöneicho, Jessen (Elster) Mönchenhöfe, Jessen (Elster) Arnsdorf, Schützberg, Jessen (Elster) Holzdorf, Jessen (Elster) Schadewalde, Jessen (Elster) Reicho, Jessen (Elster) Kleindröben, Jessen (Elster) Ruhlsdorf, Jessen (Elster) Jessen (Elster), Jessen (Elster) Gorsdorf-Hemsendorf, Jessen (Elster), Jessen (Elster) Düßnitz, Jessen (Elster) Gerbisbach, Jessen (Elster) Dixförda, Jessen (Elster) Mark Zwuschen, Jessen (Elster) Mügeln",Sachsen-Anhalt,ST,,0.0,Landkreis Wittenberg,15091.0,51.80961388888889,12.980822222222223,4.0
DE,06918,"Listerfehrda, Mellnitz, Morxdorf, Naundorf bei Seyda, Elster/Elbe, Gentha, Gadegast, Jessen (Elster) Seyda, Zemnick",Sachsen-Anhalt,ST,,0.0,Landkreis Wittenberg,15091.0,51.87533333333333,12.884655555555556,4.0
DE,06922,"Prettin, Labrun, Plossig, Axien, Lebien",Sachsen-Anhalt,ST,,0.0,Landkreis Wittenberg,15091.0,51.69052000000001,12.9334,4.0
DE,06925,"Löben, Purzien, Groß Naundorf, Bethau, Annaburg",Sachsen-Anhalt,ST,,0.0,Landkreis Wittenberg,15091.0,51.726459999999996,13.028379999999999,4.0
DE,06926,"Holzdorf, Reicho, Mönchenhöfe, Buschkuhnsdorf, Kleinkorga, Neuerstadt, Premsendorf",Sachsen-Anhalt,ST,,0.0,Landkreis Wittenberg,15091.0,51.79721428571429,13.112414285714285,4.0
DE,06928,Linda (Elster),Sachsen-Anhalt,ST,,0.0,Landkreis Wittenberg,15091.0,51.85,13.1167,
DE,07318,"Saalfeld/Saale, Wittgendorf, Arnsgereuth",Thüringen,TH,,0.0,Saalfeld-Rudolstadt,16073.0,50.62006666666667,11.308666666666667,4.0
DE,07330,"Marktgölitz, Probstzella",Thüringen,TH,,0.0,Saalfeld-Rudolstadt,16073.0,50.544799999999995,11.35925,4.0
DE,07333,Unterwellenborn,Thüringen,TH,,0.0,Saalfeld-Rudolstadt,16073.0,50.65,11.4333,4.0
DE,07334,"Goßwitz, Kamsdorf",Thüringen,TH,,0.0,Saalfeld-Rudolstadt,16073.0,50.63925,11.4657,4.0
DE,07336,"Könitz, Birkigt",Thüringen,TH,,0.0,Saalfeld-Rudolstadt,16073.0,50.6596,11.48635,4.0
DE,07338,"Hohenwarte, Altenbeuthen, Leutenberg, Kaulsdorf, Drognitz",Thüringen,TH,,0.0,Saalfeld-Rudolstadt,16073.0,50.592,11.50908,4.0
DE,07343,Wurzbach,Thüringen,TH,,0.0,Saale-Orla-Kreis,16075.0,50.4636,11.5378,4.0
DE,07349,Lehesten,Thüringen,TH,,0.0,Saalfeld-Rudolstadt,16073.0,50.4743,11.4522,4.0
DE,07356,"Neundorf (bei Lobenstein), Lobenstein",Thüringen,TH,,0.0,Saale-Orla-Kreis,16075.0,50.4628,11.59665,
DE,07366,"Blankenberg, Birkenhügel, Blankenstein, Harra, Pottiga, Schlegel",Thüringen,TH,,0.0,Saale-Orla-Kreis,16075.0,50.41161666666667,11.70095,4.0
DE,07368,"Remptendorf, Saalburg-Ebersdorf",Thüringen,TH,,0.0,Saale-Orla-Kreis,16075.0,50.5125,11.675,4.0
DE,07381,"Döbritz, Oberoppurg, Moxa, Langenorla, Nimritz, Paska, Wernburg, Pößneck, Bodelwitz, Solkwitz, Oppurg",Thüringen,TH,,0.0,Saale-Orla-Kreis,16075.0,50.689090909090915,11.6329,4.0
DE,07387,"Krölpa, Lausnitz bei Pößneck",Thüringen,TH,,0.0,Saale-Orla-Kreis,16075.0,50.67205,11.51925,4.0
DE,07389,"Schmorda, Knau, Gertewitz, Seisla, Bucha, Ranis, Quaschwitz, Peuschen, Grobengereuth, Gössitz, Wilhelmsdorf, Keila",Thüringen,TH,,0.0,Saale-Orla-Kreis,16075.0,50.651975,11.631033333333333,4.0
DE,07407,"Rudolstadt, Großkochberg, Uhlstädt-Kirchhasel, Remda-Teichel, Heilingen",Thüringen,TH,,0.0,Saalfeld-Rudolstadt,16073.0,50.757979999999996,11.36782,4.0
DE,07422,"Rottenbach, Bad Blankenburg, Saalfelder Höhe",Thüringen,TH,,0.0,Saalfeld-Rudolstadt,16073.0,50.66113333333334,11.248766666666667,4.0
DE,07426,"Dröbischau, Oberhain, Allendorf, Bechstedt, Königsee",Thüringen,TH,,0.0,Saalfeld-Rudolstadt,16073.0,50.64918,11.1257,4.0
DE,07427,Schwarzburg,Thüringen,TH,,0.0,Saalfeld-Rudolstadt,16073.0,50.643,11.1919,4.0
DE,07429,"Döschnitz, Sitzendorf, Rohrbach",Thüringen,TH,,0.0,Saalfeld-Rudolstadt,16073.0,50.616166666666665,11.2074,4.0
DE,07497,Deutsche Rentenversicherung Bund,Thuringia,15,,,Kreisfreie Stadt Gera,16052.0,50.8729,12.0826,
DE,07499,Deutsche Post AG Niederlassung BRIEF Gera,Thuringia,15,,,Kreisfreie Stadt Gera,16052.0,50.9073,12.0735,
DE,07541,Agentur für Arbeit Thüringen Ost,Thuringia,15,,,Kreisfreie Stadt Gera,16052.0,50.8704,12.0838,
DE,07543,"Stadtverwaltung Gera, Agentur für Arbeit Thüringen Ost",Thuringia,15,,,Kreisfreie Stadt Gera,16052.0,50.8732,12.08395,
DE,07545,Gera,Thüringen,TH,,0.0,"Gera, Stadt",16052.0,50.8782,12.0824,4.0
DE,07546,Gera,Thüringen,TH,,0.0,"Gera, Stadt",16052.0,50.8901,12.1019,4.0
DE,07548,Gera,Thüringen,TH,,0.0,"Gera, Stadt",16052.0,50.8667,12.0833,4.0
DE,07549,Gera,Thüringen,TH,,0.0,"Gera, Stadt",16052.0,50.8408,12.0756,4.0
DE,07551,Gera,Thüringen,TH,,0.0,"Gera, Stadt",16052.0,50.8412,12.1072,4.0
DE,07552,Gera,Thüringen,TH,,0.0,"Gera, Stadt",16052.0,50.8667,12.0833,4.0
DE,07554,"Kauern, Bethenhausen, Schwaara, Hirschfeld, Brahmenau, Pölzig, Korbußen",Thüringen,TH,,0.0,Landkreis Greiz,16076.0,50.89434285714286,12.162185714285714,4.0
DE,07557,"Zedlitz, Crimla, Harth-Pöllnitz Köfeln, Bocka, Harth-Pöllnitz, Harth-Pöllnitz Köckritz, Hundhaupten",Thüringen,TH,,0.0,Landkreis Greiz,16076.0,50.802414285714285,12.013757142857143,4.0
DE,07570,"Steinsdorf, Harth-Pöllnitz Forstwolfersdorf, Harth-Pöllnitz Uhlersdorf, Harth-Pöllnitz Wetzdorf, Harth-Pöllnitz Grochwitz, Harth-Pöllnitz Niederpöllnitz, Harth-Pöllnitz, Harth-Pöllnitz Frießnitz, Harth-Pöllnitz Neundorf, Harth-Pöllnitz Burkersdorf, Wünschendorf, Harth-Pöllnitz Rohna, Harth-Pöllnitz Nonnendorf, Harth-Pöllnitz Birkigt, Hohenölsen, Schömberg, Endschütz, Teichwitz, Weida",Thüringen,TH,,0.0,Landkreis Greiz,16076.0,50.76302105263158,12.012578947368421,4.0
DE,07580,"Ronneburg, Braunichswalde, Gauern, Paitzdorf, Seelingstädt, Großenstein, Reichstädt, Rückersdorf, Hilbersdorf, Linda bei Weida",Thüringen,TH,,0.0,Landkreis Greiz,16076.0,50.83295,12.206819999999999,4.0
DE,07584,"Bitburger Brauerei Th. Simon GmbH, Köstritzer Schwarzbierbrauerei",Thuringia,15,,,Landkreis Greiz,16076.0,50.9304,12.0145,
DE,07586,"Hartmannsdorf, Bad Köstritz, Kraftsdorf, Caaschwitz",Thüringen,TH,,0.0,Landkreis Greiz,16076.0,50.914,11.98485,4.0
DE,07589,"Münchenbernsdorf, Harth-Pöllnitz, Harth-Pöllnitz Großebersdorf, Lederhose, Harth-Pöllnitz Struth, Harth-Pöllnitz Birkhausen, Lindenkreuz, Saara, Schwarzbach",Thüringen,TH,,0.0,Landkreis Greiz,16076.0,50.80374444444445,11.935655555555556,4.0
DE,07607,"Hainspitz, Eisenberg, Gösen, Heideland",Thüringen,TH,,0.0,Saale-Holzland-Kreis,16074.0,50.982425,11.884425,4.0
DE,07613,"Hartmannsdorf, Silbitz, Walpernhain, Rauda, Seifartsdorf, Crossen an der Elster",Thüringen,TH,,0.0,Saale-Holzland-Kreis,16074.0,50.966616666666674,11.966783333333334,4.0
DE,07616,"Rauschwitz, Serba, Nausnitz, Bürgel, Poxdorf, Graitschen bei Bürgel, Petersberg",Thüringen,TH,,0.0,Saale-Holzland-Kreis,16074.0,50.95841428571429,11.772342857142858,4.0
DE,07619,"Schkölen, Mertendorf",Thüringen,TH,,0.0,Saale-Holzland-Kreis,16074.0,51.020849999999996,11.80235,4.0
DE,07629,"Sankt Gangloff, Reichenbach, Schleifreisen, Hermsdorf",Thüringen,TH,,0.0,Saale-Holzland-Kreis,16074.0,50.878325000000004,11.87955,4.0
DE,07639,"Weißenborn, Bad Klosterlausnitz, Tautenhain",Thüringen,TH,,0.0,Saale-Holzland-Kreis,16074.0,50.92176666666666,11.888533333333333,4.0
DE,07646,"Tröbnitz, Tissa, Renthendorf, Eineborn, Albersdorf, Karlsdorf, Schöngleina, Meusebach, Waldeck, Laasdorf, Großbockedra, Waltersdorf, Ottendorf, Scheiditz, Bobeck, Lippersdorf-Erdmannsdorf, Rausdorf, Rattelsdorf, Tautendorf, Quirla, Stadtroda, Unterbodnitz, Oberbodnitz, Weißbach, Mörsdorf, Bollberg, Bremsnitz, Kleinbockedra, Geisenhain, Möckern, Schlöben, Ruttersdorf-Lotschen, Trockenborn-Wolfersdorf, Gneus, Kleinebersdorf",Thüringen,TH,,0.0,Saale-Holzland-Kreis,16074.0,50.846334285714285,11.755774285714285,4.0
DE,07737,Friedrich-Schiller-Universität,Thuringia,15,,,Kreisfreie Stadt Jena,16053.0,50.9298,11.5895,
DE,07738,Deutsches Patentamt Außenstelle Jena,Thuringia,15,,,Kreisfreie Stadt Jena,16053.0,50.9275,11.583,
DE,07739,JENOPTIK AG,Thuringia,15,,,Kreisfreie Stadt Jena,16053.0,50.9281,11.5807,
DE,07740,"Jenaer Glaswerk GmbH, Carl Zeiss AG, Klinikum der Friedrich-Schiller-Universität, Jenapharm GmbH & Co. KG, TES Thüringer Energie Service GmbH, Intershop Communication AG, Agentur für Arbeit Jena",Thuringia,15,,,Kreisfreie Stadt Jena,16053.0,50.913428571428575,11.58627142857143,
DE,07743,Jena,Thüringen,TH,,0.0,"Jena, Stadt",16053.0,50.9326,11.5868,4.0
DE,07745,Jena,Thüringen,TH,,0.0,"Jena, Stadt",16053.0,50.8933,11.5847,4.0
DE,07747,Jena,Thüringen,TH,,0.0,"Jena, Stadt",16053.0,50.8899,11.6086,4.0
DE,07749,Jena,Thüringen,TH,,0.0,"Jena, Stadt",16053.0,50.943,11.6034,4.0
DE,07751,"Jenalöbnitz, Löberschütz, Bucha, Golmsdorf, Großlöbichau, Großpürschütz, Sulza, Milda, Rothenstein, Zöllnitz",Thüringen,TH,,0.0,Saale-Holzland-Kreis,16074.0,50.89573,11.61851,4.0
DE,07768,"Bibra, Reinstädt, Schöps, Großeutersdorf, Lindig, Hummelshain, Altenberga, Kleineutersdorf, Gumperda, Eichenberg, Kahla, Orlamünde, Freienorla, Seitenroda",Thüringen,TH,,0.0,Saale-Holzland-Kreis,16074.0,50.79672142857142,11.56187857142857,4.0
DE,07774,"Camburg, Thierschneck, Frauenprießnitz, Wichmar",Thüringen,TH,,0.0,Saale-Holzland-Kreis,16074.0,51.034625,11.72325,4.0
DE,07778,"Lehesten, Tautenburg, Dornburg, Dorndorf-Steudnitz, Hainichen, Zimmern, Neuengönna",Thüringen,TH,,0.0,Saale-Holzland-Kreis,16074.0,50.99747142857143,11.64832857142857,4.0
DE,07806,"Dreba, Weira, Lausnitz bei Neustadt an der Orla, Neustadt an der Orla",Thüringen,TH,,0.0,Saale-Orla-Kreis,16075.0,50.707975000000005,11.7369,4.0
DE,07819,"Triptis, Geroda, Lemnitz, Tömmelsdorf, Dreitzsch, Pillingsdorf, Mittelpöllnitz, Rosendorf, Miesitz, Schmieritz, Linda bei Neustadt an der Orla",Thüringen,TH,,0.0,Saale-Orla-Kreis,16075.0,50.73677272727273,11.834618181818183,4.0
DE,07907,"Oettersdorf, Pörmitz, Schleiz, Tegau, Plothen, Görkwitz, Dragensdorf, Göschitz, Löhma, Dittersdorf",Thüringen,TH,,0.0,Saale-Orla-Kreis,16075.0,50.62029,11.82292,4.0
DE,07919,"Mühltroff, Kirschkau",Sachsen,SN,,0.0,Vogtlandkreis,14523.0,50.572050000000004,11.9077,4.0
DE,07922,Tanna,Thüringen,TH,,0.0,Saale-Orla-Kreis,16075.0,50.4946,11.8572,4.0
DE,07924,"Eßbach, Neundorf (bei Schleiz), Ziegenrück, Schöndorf, Volkmannsdorf",Thüringen,TH,,0.0,Saale-Orla-Kreis,16075.0,50.603840000000005,11.705259999999999,4.0
DE,07926,Gefell,Thüringen,TH,,0.0,Saale-Orla-Kreis,16075.0,50.4405,11.8593,4.0
DE,07927,Hirschberg,Thüringen,TH,,0.0,Saale-Orla-Kreis,16075.0,50.4054,11.8183,4.0
DE,07929,Saalburg-Ebersdorf,Thüringen,TH,,0.0,Saale-Orla-Kreis,16075.0,50.4917,11.7,4.0
DE,07937,"Zadelsdorf, Zeulenroda, Langenwolschendorf, Silberfeld, Vogtländisches Oberland",Thüringen,TH,,0.0,Landkreis Greiz,16076.0,50.64424,11.986239999999999,4.0
DE,07950,"Göhren-Döhlen, Merkendorf, Staitz, Triebes, Wiebelsdorf, Weißendorf",Thüringen,TH,,0.0,Landkreis Greiz,16076.0,50.70138333333333,11.991833333333334,4.0
DE,07952,"Pausa, Vogtländisches Oberland",Sachsen,SN,,0.0,Vogtlandkreis,14523.0,50.5867,12.0445,4.0
DE,07955,"Auma, Braunsdorf",Thüringen,TH,,0.0,Landkreis Greiz,16076.0,50.718050000000005,11.906600000000001,4.0
DE,07957,"Hain, Langenwetzendorf",Thüringen,TH,,0.0,Landkreis Greiz,16076.0,50.69315,12.0887,4.0
DE,07958,Hohenleuben,Thüringen,TH,,0.0,Landkreis Greiz,16076.0,50.7113,12.0543,4.0
DE,07973,Greiz,Thüringen,TH,,0.0,Landkreis Greiz,16076.0,50.6578,12.1992,4.0
DE,07980,"Neugernsdorf, Berga/Elster, Neumühle, Kühdorf, Wildetaube, Lunzig",Thüringen,TH,,0.0,Landkreis Greiz,16076.0,50.7177,12.131916666666667,4.0
DE,07985,"Vogtländisches Oberland, Elsterberg",Sachsen,SN,,0.0,Vogtlandkreis,14523.0,50.60005,12.1298,4.0
DE,07987,Mohlsdorf,Thüringen,TH,,0.0,Landkreis Greiz,16076.0,50.6697,12.2652,4.0
DE,07989,Teichwolframsdorf,Thüringen,TH,,0.0,Landkreis Greiz,16076.0,50.7209,12.2469,4.0
DE,08037,Agentur für Arbeit Zwickau,Saxony,13,,,Zwickau,14524.0,50.7204,12.484,
DE,08048,"Volkswagen Sachsen GmbH, GKN-Gelenkwellenwerk Mosel GmbH",Saxony,13,,,Zwickau,14524.0,50.7952,12.48375,
DE,08056,Zwickau,Sachsen,SN,,0.0,Zwickau,14524.0,50.7114,12.4928,4.0
DE,08058,Zwickau,Sachsen,SN,,0.0,Zwickau,14524.0,50.7439,12.4781,4.0
DE,08060,Zwickau,Sachsen,SN,,0.0,Zwickau,14524.0,50.7188,12.4601,4.0
DE,08062,Zwickau,Sachsen,SN,,0.0,Zwickau,14524.0,50.6915,12.4734,4.0
DE,08064,Zwickau,Sachsen,SN,,0.0,Zwickau,14524.0,50.6752,12.4709,4.0
DE,08066,Zwickau,Sachsen,SN,,0.0,Zwickau,14524.0,50.7319,12.5251,4.0
DE,08080,Deutsche Post AG Niederlassung BRIEF Zwickau,Saxony,13,,,Zwickau,14524.0,50.6906,12.5644,
DE,08081,Amazon FC PRG 2,Saxony,13,,,Vogtlandkreis,14523.0,50.6685,12.3636,
DE,08107,"Hirschfeld, Hartmannsdorf bei Kirchberg, Kirchberg",Sachsen,SN,,0.0,Zwickau,14524.0,50.612833333333334,12.513733333333334,4.0
DE,08112,Wilkau-Haßlau,Sachsen,SN,,0.0,Zwickau,14524.0,50.675,12.5148,4.0
DE,08115,Lichtentanne,Sachsen,SN,,0.0,Zwickau,14524.0,50.6925,12.4259,4.0
DE,08118,"Hartenstein Hartenstein, Hartenstein Zschocken, Hartenstein Thierfeld, Hartenstein",Sachsen,SN,,0.0,Zwickau,14524.0,50.666775,12.670950000000001,4.0
DE,08132,"Mülsen Wulm, Mülsen Thurm, Mülsen Stangendorf, Mülsen Niedermülsen, Mülsen, Mülsen Ortmannsdorf, Mülsen Ortmannsdorf, Neuschönburg, Mülsen Mülsen Sankt Micheln, Mülsen Wulm, Wulm, Mülsen Mülsen Sankt Niclas, Mülsen Ortmannsdorf, Ortmannsdorf, Mülsen Ortmannsdorf, Marienau, Mülsen Mülsen Sankt Jacob, Mülsen Wulm, Bertelsdorf",Sachsen,SN,,0.0,Zwickau,14524.0,50.744871428571436,12.573485714285713,4.0
DE,08134,"Wildenfels Wildenfels, Wildenfels Wiesenburg, Wildenfels Wiesen, Wildenfels Härtensdorf, Wildenfels Schönau, Langenweißbach Weißbach, Langenweißbach Langenbach, Langenweißbach, Wildenfels, Langenweißbach Grünau",Sachsen,SN,,0.0,Zwickau,14524.0,50.65287,12.59538,4.0
DE,08141,Reinsdorf,Sachsen,SN,,0.0,Zwickau,14524.0,50.6978,12.5555,4.0
DE,08144,Hirschfeld,Sachsen,SN,,0.0,Zwickau,14524.0,50.6333,12.4667,4.0
DE,08147,Crinitzberg,Sachsen,SN,,0.0,Zwickau,14524.0,50.5667,12.5083,4.0
DE,08209,Auerbach/Vogtland,Sachsen,SN,,0.0,Vogtlandkreis,14523.0,50.4924,12.4171,
DE,08223,"Grünbach, Falkenstein/Vogtland, Neustadt/Vogtland, Werda",Sachsen,SN,,0.0,Vogtlandkreis,14523.0,50.457750000000004,12.34255,4.0
DE,08228,Rodewisch,Sachsen,SN,,0.0,Vogtlandkreis,14523.0,50.5308,12.4133,4.0
DE,08233,Treuen,Sachsen,SN,,0.0,Vogtlandkreis,14523.0,50.5425,12.3034,4.0
DE,08236,Ellefeld,Sachsen,SN,,0.0,Vogtlandkreis,14523.0,50.4837,12.3888,4.0
DE,08237,Steinberg,Sachsen,SN,,0.0,Vogtlandkreis,14523.0,50.5389,12.4778,4.0
DE,08239,Bergen,Sachsen,SN,,0.0,Vogtlandkreis,14523.0,50.471,12.2745,4.0
DE,08248,Klingenthal/Sachsen,Sachsen,SN,,0.0,Vogtlandkreis,14523.0,50.3667,12.4667,
DE,08258,Markneukirchen,Sachsen,SN,,0.0,Vogtlandkreis,14523.0,50.3114,12.3295,4.0
DE,08261,Schöneck/Vogtland,Sachsen,SN,,0.0,Vogtlandkreis,14523.0,50.3833,12.3167,4.0
DE,08262,"Tannenbergsthal/Vogtland, Morgenröthe-Rautenkranz",Sachsen,SN,,0.0,Vogtlandkreis,14523.0,50.439800000000005,12.489899999999999,4.0
DE,08265,Erlbach,Sachsen,SN,,0.0,Vogtlandkreis,14523.0,50.3167,12.3667,4.0
DE,08267,Zwota,Sachsen,SN,,0.0,Vogtlandkreis,14523.0,50.351,12.4224,4.0
DE,08269,Hammerbrücke,Sachsen,SN,,0.0,Vogtlandkreis,14523.0,50.435,12.415,4.0
DE,08280,Aue,Sachsen,SN,,0.0,Erzgebirgskreis,14521.0,50.5903,12.7066,4.0
DE,08289,Schneeberg,Sachsen,SN,,0.0,Erzgebirgskreis,14521.0,50.5947,12.6414,4.0
DE,08294,Lößnitz,Sachsen,SN,,0.0,Erzgebirgskreis,14521.0,50.6218,12.7315,4.0
DE,08297,Zwönitz,Sachsen,SN,,0.0,Erzgebirgskreis,14521.0,50.6303,12.81,4.0
DE,08301,Schlema,Sachsen,SN,,0.0,Erzgebirgskreis,14521.0,50.5981,12.6588,4.0
DE,08304,Schönheide,Sachsen,SN,,0.0,Erzgebirgskreis,14521.0,50.5046,12.5216,4.0
DE,08309,Eibenstock,Sachsen,SN,,0.0,Erzgebirgskreis,14521.0,50.4943,12.5998,4.0
DE,08312,Lauter/Sachsen,Sachsen,SN,,0.0,Erzgebirgskreis,14521.0,50.5667,12.7333,4.0
DE,08315,Bernsbach,Sachsen,SN,,0.0,Erzgebirgskreis,14521.0,50.5762,12.7675,4.0
DE,08318,Hundshübel,Sachsen,SN,,0.0,Erzgebirgskreis,14521.0,50.5439,12.5711,4.0
DE,08321,Zschorlau,Sachsen,SN,,0.0,Erzgebirgskreis,14521.0,50.5667,12.65,4.0
DE,08324,Bockau,Sachsen,SN,,0.0,Erzgebirgskreis,14521.0,50.5421,12.6864,4.0
DE,08325,"Carlsfeld, Erzgebirge",Sachsen,SN,,0.0,Erzgebirgskreis,14521.0,50.5167,12.6,
DE,08326,Sosa,Sachsen,SN,,0.0,Erzgebirgskreis,14521.0,50.4992,12.6512,4.0
DE,08328,Stützengrün,Sachsen,SN,,0.0,Erzgebirgskreis,14521.0,50.5333,12.5333,4.0
DE,08340,"Beierfeld, Schwarzenberg/Erzgebirge",Sachsen,SN,,0.0,Erzgebirgskreis,14521.0,50.55185,12.78725,4.0
DE,08344,Grünhain,Sachsen,SN,,0.0,Erzgebirgskreis,14521.0,50.5802,12.8069,4.0
DE,08349,"Johanngeorgenstadt, Erlabrunn",Sachsen,SN,,0.0,Erzgebirgskreis,14521.0,50.45255,12.70935,4.0
DE,08352,"Pöhla, Markersbach, Raschau",Sachsen,SN,,0.0,Erzgebirgskreis,14521.0,50.52603333333334,12.837833333333334,4.0
DE,08355,Rittersgrün,Sachsen,SN,,0.0,Erzgebirgskreis,14521.0,50.4803,12.7934,4.0
DE,08359,Breitenbrunn/Erzgebirge,Sachsen,SN,,0.0,Erzgebirgskreis,14521.0,50.4667,12.7667,4.0
DE,08371,Glauchau,Sachsen,SN,,0.0,Zwickau,14524.0,50.8199,12.5449,4.0
DE,08373,Remse,Sachsen,SN,,0.0,Zwickau,14524.0,50.85,12.5667,4.0
DE,08393,"Meerane, Dennheritz, Schönberg",Sachsen,SN,,0.0,Zwickau,14524.0,50.84283333333334,12.473733333333334,4.0
DE,08396,"Waldenburg, Oberwiera",Sachsen,SN,,0.0,Zwickau,14524.0,50.8799,12.5496,4.0
DE,08412,"Leubnitz, Werdau",Sachsen,SN,,0.0,Zwickau,14524.0,50.72955,12.36595,4.0
DE,08427,Fraureuth,Sachsen,SN,,0.0,Zwickau,14524.0,50.7,12.35,4.0
DE,08428,Langenbernsdorf,Sachsen,SN,,0.0,Zwickau,14524.0,50.7558,12.3267,4.0
DE,08432,Steinpleis,Sachsen,SN,,0.0,Zwickau,14524.0,50.7142,12.3999,4.0
DE,08439,Langenhessen,Sachsen,SN,,0.0,Zwickau,14524.0,50.7625,12.3714,4.0
DE,08451,Crimmitschau,Sachsen,SN,,0.0,Zwickau,14524.0,50.809,12.3461,4.0
DE,08459,Neukirchen/Pleiße,Sachsen,SN,,0.0,Zwickau,14524.0,50.8,12.3667,4.0
DE,08468,"Reichenbach/Vogtland, Heinsdorfergrund",Sachsen,SN,,0.0,Vogtlandkreis,14523.0,50.6225,12.3378,4.0
DE,08485,Lengenfeld,Sachsen,SN,,0.0,Vogtlandkreis,14523.0,50.5694,12.3641,4.0
DE,08491,"Netzschkau, Limbach",Sachsen,SN,,0.0,Vogtlandkreis,14523.0,50.5987,12.2469,4.0
DE,08496,Neumark,Sachsen,SN,,0.0,Vogtlandkreis,14523.0,50.6601,12.3562,4.0
DE,08499,Mylau,Sachsen,SN,,0.0,Vogtlandkreis,14523.0,50.6186,12.2654,4.0
DE,08520,Agentur für Arbeit Plauen,Saxony,13,,,Vogtlandkreis,14523.0,50.4971,12.1225,
DE,08523,Plauen,Sachsen,SN,,0.0,Vogtlandkreis,14523.0,50.4942,12.1353,4.0
DE,08525,Plauen,Sachsen,SN,,0.0,Vogtlandkreis,14523.0,50.5106,12.13,4.0
DE,08527,Plauen,Sachsen,SN,,0.0,Vogtlandkreis,14523.0,50.4935,12.1272,4.0
DE,08529,Plauen,Sachsen,SN,,0.0,Vogtlandkreis,14523.0,50.4921,12.1775,4.0
DE,08538,"Reuth, Weischlitz, Burgstein",Sachsen,SN,,0.0,Vogtlandkreis,14523.0,50.44116666666667,11.995766666666668,4.0
DE,08539,Mehltheuer,Sachsen,SN,,0.0,Vogtlandkreis,14523.0,50.5453,12.037,4.0
DE,08541,"Neuensalz, Theuma",Sachsen,SN,,0.0,Vogtlandkreis,14523.0,50.48505,12.2193,4.0
DE,08543,Pöhl,Sachsen,SN,,0.0,Vogtlandkreis,14523.0,50.55,12.1833,4.0
DE,08547,Jößnitz,Sachsen,SN,,0.0,Vogtlandkreis,14523.0,50.5,12.1333,
DE,08548,Syrau,Sachsen,SN,,0.0,Vogtlandkreis,14523.0,50.543,12.0793,4.0
DE,08606,"Bösenbrunn, Triebel/Vogtland, Mühlental, Tirpersdorf, Oelsnitz",Sachsen,SN,,0.0,Vogtlandkreis,14523.0,50.40938,12.226859999999999,4.0
DE,08626,"Adorf, Eichigt",Sachsen,SN,,0.0,Vogtlandkreis,14523.0,50.335049999999995,12.2133,4.0
DE,08645,Bad Elster,Sachsen,SN,,0.0,Vogtlandkreis,14523.0,50.2819,12.2343,4.0
DE,08648,Bad Brambach,Sachsen,SN,,0.0,Vogtlandkreis,14523.0,50.2167,12.3167,4.0
DE,09028,"Chemnitz, Sachsen",Sachsen,SN,,0.0,"Chemnitz, Stadt",14511.0,50.8333,12.9167,
DE,09030,"Chemnitz, Sachsen",Sachsen,SN,,0.0,"Chemnitz, Stadt",14511.0,50.8333,12.9167,
DE,09091,Agentur für Arbeit Chemnitz,Saxony,13,,,Kreisfreie Stadt Chemnitz,14511.0,50.8145,12.9113,
DE,09092,Familienkasse Sachsen,Saxony,13,,,Kreisfreie Stadt Chemnitz,14511.0,50.8145,12.9113,
DE,09093,Deutsche Post AG Briefzentrum Chemnitz,Saxony,13,,,Kreisfreie Stadt Chemnitz,14511.0,50.8126,12.8807,
DE,09094,HUK Coburg,Saxony,13,,,Kreisfreie Stadt Chemnitz,14511.0,50.8344,12.9264,
DE,09095,envia Mitteldeutsche Energie AG,Saxony,13,,,Kreisfreie Stadt Chemnitz,14511.0,50.8784,12.9032,
DE,09096,Deutsche Telekom AG Niederlassung Chemnitz,Saxony,13,,,Kreisfreie Stadt Chemnitz,14511.0,50.8102,12.9048,
DE,09097,"Finanzamt Chemnitz-Mitte, Finanzamt Chemnitz-Süd",Saxony,13,,,Kreisfreie Stadt Chemnitz,14511.0,50.81895,12.906400000000001,
DE,09099,AOK - Die Gesundheitskasse,Saxony,13,,,Kreisfreie Stadt Chemnitz,14511.0,50.8448,12.9179,
DE,09100,Agentur für Arbeit Chemnitz,Saxony,13,,,Kreisfreie Stadt Chemnitz,14511.0,50.8145,12.9113,
DE,09103,Allianz Versicherungs-AG Filialdirektion Chemnitz,Saxony,13,,,Kreisfreie Stadt Chemnitz,14511.0,50.8324,12.9197,
DE,09105,Landesdirektion Sachsen,Saxony,13,,,Kreisfreie Stadt Chemnitz,14511.0,50.8166,12.9165,
DE,09106,Stadtverwaltung,Saxony,13,,,Kreisfreie Stadt Chemnitz,14511.0,50.8326,12.9191,
DE,09107,Technische Universität Chemnitz,Saxony,13,,,Kreisfreie Stadt Chemnitz,14511.0,50.8392,12.9273,
DE,09108,Bundesknappschaft,Saxony,13,,,Kreisfreie Stadt Chemnitz,14511.0,50.8091,12.8419,
DE,09109,Landesjustizkasse Chemnitz,Saxony,13,,,Kreisfreie Stadt Chemnitz,14511.0,50.8058,12.8426,
DE,09111,Chemnitz,Sachsen,SN,,0.0,"Chemnitz, Stadt",14511.0,50.8351,12.9222,4.0
DE,09112,Chemnitz,Sachsen,SN,,0.0,"Chemnitz, Stadt",14511.0,50.827,12.9043,4.0
DE,09113,Chemnitz,Sachsen,SN,,0.0,"Chemnitz, Stadt",14511.0,50.8507,12.8951,4.0
DE,09114,Chemnitz,Sachsen,SN,,0.0,"Chemnitz, Stadt",14511.0,50.8574,12.8977,4.0
DE,09116,Chemnitz,Sachsen,SN,,0.0,"Chemnitz, Stadt",14511.0,50.8213,12.884,4.0
DE,09117,Chemnitz,Sachsen,SN,,0.0,"Chemnitz, Stadt",14511.0,50.8179,12.8379,4.0
DE,09119,Chemnitz,Sachsen,SN,,0.0,"Chemnitz, Stadt",14511.0,50.8203,12.9056,4.0
DE,09120,Chemnitz,Sachsen,SN,,0.0,"Chemnitz, Stadt",14511.0,50.8056,12.9067,4.0
DE,09122,Chemnitz,Sachsen,SN,,0.0,"Chemnitz, Stadt",14511.0,50.7945,12.8875,4.0
DE,09123,Chemnitz,Sachsen,SN,,0.0,"Chemnitz, Stadt",14511.0,50.7659,12.946,4.0
DE,09125,Chemnitz,Sachsen,SN,,0.0,"Chemnitz, Stadt",14511.0,50.7963,12.9199,4.0
DE,09126,Chemnitz,Sachsen,SN,,0.0,"Chemnitz, Stadt",14511.0,50.8197,12.9403,4.0
DE,09127,Chemnitz,Sachsen,SN,,0.0,"Chemnitz, Stadt",14511.0,50.8284,12.9586,4.0
DE,09128,"Chemnitz, Sachsen",Sachsen,SN,,0.0,"Chemnitz, Stadt",14511.0,50.8333,12.9167,
DE,09130,Chemnitz,Sachsen,SN,,0.0,"Chemnitz, Stadt",14511.0,50.8376,12.9345,4.0
DE,09131,Chemnitz,Sachsen,SN,,0.0,"Chemnitz, Stadt",14511.0,50.8333,12.9167,4.0
DE,09212,"Limbach-Oberfrohna, Kändler, Pleißa",Sachsen,SN,,0.0,Zwickau,14524.0,50.85003333333333,12.773299999999999,4.0
DE,09217,Burgstädt,Sachsen,SN,,0.0,Landkreis Mittelsachsen,14522.0,50.9133,12.806,4.0
DE,09221,Neukirchen/Erzgebirge,Sachsen,SN,,0.0,Erzgebirgskreis,14521.0,50.7835,12.87,4.0
DE,09224,Mittelbach bei Chemnitz,Sachsen,SN,,0.0,"Chemnitz, Stadt",14511.0,50.794,12.786,
DE,09227,Einsiedel bei Chemnitz,Sachsen,SN,,0.0,"Chemnitz, Stadt",14511.0,50.7705,12.9745,
DE,09228,Wittgensdorf,Sachsen,SN,,0.0,"Chemnitz, Stadt",14511.0,50.8832,12.8703,4.0
DE,09231,KOMSA AG,Saxony,13,,,Landkreis Mittelsachsen,14522.0,50.8854,12.8028,
DE,09232,Hartmannsdorf,Sachsen,SN,,0.0,Landkreis Mittelsachsen,14522.0,50.9,12.8,4.0
DE,09235,Burkhardtsdorf,Sachsen,SN,,0.0,Erzgebirgskreis,14521.0,50.7333,12.9167,4.0
DE,09236,Claußnitz,Sachsen,SN,,0.0,Landkreis Mittelsachsen,14522.0,50.9333,12.8833,4.0
DE,09241,Mühlau,Sachsen,SN,,0.0,Landkreis Mittelsachsen,14522.0,50.9,12.7667,4.0
DE,09243,Niederfrohna,Sachsen,SN,,0.0,Zwickau,14524.0,50.9,12.7167,4.0
DE,09244,Lichtenau,Sachsen,SN,,0.0,Landkreis Mittelsachsen,14522.0,50.9083,12.9917,4.0
DE,09247,Röhrsdorf,Sachsen,SN,,0.0,"Chemnitz, Stadt",14511.0,50.8621,12.8339,4.0
DE,09249,Taura,Sachsen,SN,,0.0,Landkreis Mittelsachsen,14522.0,50.9167,12.85,4.0
DE,09306,"Erlau, Zettlitz, Königsfeld, Seelitz, Rochlitz, Wechselburg, Königshain-Wiederau",Sachsen,SN,,0.0,Landkreis Mittelsachsen,14522.0,51.028442857142856,12.826014285714285,4.0
DE,09322,Penig,Sachsen,SN,,0.0,Landkreis Mittelsachsen,14522.0,50.9334,12.7042,4.0
DE,09326,Geringswalde,Sachsen,SN,,0.0,Landkreis Mittelsachsen,14522.0,51.0768,12.9072,4.0
DE,09328,Lunzenau,Sachsen,SN,,0.0,Landkreis Mittelsachsen,14522.0,50.9627,12.7559,4.0
DE,09337,"Hohenstein-Ernstthal, Callenberg, Bernsdorf",Sachsen,SN,,0.0,Zwickau,14524.0,50.80576666666667,12.670966666666667,4.0
DE,09350,Lichtenstein/Sachsen,Sachsen,SN,,0.0,Zwickau,14524.0,50.7438,12.6453,
DE,09353,Oberlungwitz,Sachsen,SN,,0.0,Zwickau,14524.0,50.7823,12.7079,4.0
DE,09355,Gersdorf,Sachsen,SN,,0.0,Zwickau,14524.0,50.75,12.7167,4.0
DE,09356,Sankt Egidien,Sachsen,SN,,0.0,Zwickau,14524.0,50.7862,12.624,4.0
DE,09366,"Niederdorf, Stollberg/Erzgebirge",Sachsen,SN,,0.0,Erzgebirgskreis,14521.0,50.715450000000004,12.7752,4.0
DE,09376,Oelsnitz/Erzgebirge,Sachsen,SN,,0.0,Erzgebirgskreis,14521.0,50.717,12.7217,
DE,09380,Thalheim / Erzgebirge,Sachsen,SN,,0.0,Erzgebirgskreis,14521.0,50.7,12.85,
DE,09385,"Lugau/Erzgebirge, Erlbach-Kirchberg",Sachsen,SN,,0.0,Erzgebirgskreis,14521.0,50.75,12.75835,4.0
DE,09387,Jahnsdorf/Erzgebirge,Sachsen,SN,,0.0,Erzgebirgskreis,14521.0,50.75,12.85,4.0
DE,09390,Gornsdorf,Sachsen,SN,,0.0,Erzgebirgskreis,14521.0,50.7,12.8833,4.0
DE,09392,Auerbach,Sachsen,SN,,0.0,Erzgebirgskreis,14521.0,50.6833,12.9167,4.0
DE,09394,Hohndorf,Sachsen,SN,,0.0,Erzgebirgskreis,14521.0,50.7404,12.6806,4.0
DE,09395,Hormersdorf,Sachsen,SN,,0.0,Erzgebirgskreis,14521.0,50.6741,12.8819,4.0
DE,09399,Niederwürschnitz,Sachsen,SN,,0.0,Erzgebirgskreis,14521.0,50.725,12.75,4.0
DE,09405,"Gornau/Erzgebirge, Zschopau",Sachsen,SN,,0.0,Erzgebirgskreis,14521.0,50.75745,13.046800000000001,4.0
DE,09419,Thum,Sachsen,SN,,0.0,Erzgebirgskreis,14521.0,50.6708,12.9509,4.0
DE,09423,Gelenau/Erzgebirge,Sachsen,SN,,0.0,Erzgebirgskreis,14521.0,50.7055,12.9694,4.0
DE,09427,Ehrenfriedersdorf,Sachsen,SN,,0.0,Erzgebirgskreis,14521.0,50.6493,12.9701,4.0
DE,09429,Wolkenstein,Sachsen,SN,,0.0,Erzgebirgskreis,14521.0,50.6555,13.0713,4.0
DE,09430,"Drebach, Venusberg",Sachsen,SN,,0.0,Erzgebirgskreis,14521.0,50.6875,13.01735,4.0
DE,09432,Großolbersdorf,Sachsen,SN,,0.0,Erzgebirgskreis,14521.0,50.7,13.0833,4.0
DE,09435,Scharfenstein,Sachsen,SN,,0.0,Erzgebirgskreis,14521.0,50.7041,13.0565,4.0
DE,09437,"Börnichen/Erzgebirge, Waldkirchen/Erzgebirge",Sachsen,SN,,0.0,Erzgebirgskreis,14521.0,50.75835,13.125,4.0
DE,09439,Amtsberg,Sachsen,SN,,0.0,Erzgebirgskreis,14521.0,50.75,13.0056,4.0
DE,09450,Erzgebirgssparkasse,Saxony,13,,,Erzgebirgskreis,14521.0,50.5781,13.0049,
DE,09453,"Landratsamt Erzgebirgskreis, Agentur für Arbeit Annaberg-Buchholz, Finanzamt Annaberg-Buchholz",Saxony,13,,,Erzgebirgskreis,14521.0,50.585366666666665,13.007133333333334,
DE,09454,Agentur für Arbeit Annaberg-Buchholz,Saxony,13,,,Erzgebirgskreis,14521.0,50.5874,13.0098,
DE,09456,"Mildenau, Annaberg-Buchholz",Sachsen,SN,,0.0,Erzgebirgskreis,14521.0,50.583200000000005,13.039449999999999,4.0
DE,09465,Sehmatal,Sachsen,SN,,0.0,Erzgebirgskreis,14521.0,50.5167,12.9833,4.0
DE,09468,"Geyer, Tannenberg",Sachsen,SN,,0.0,Erzgebirgskreis,14521.0,50.61685,12.92935,4.0
DE,09471,"Bärenstein, Königswalde",Sachsen,SN,,0.0,Erzgebirgskreis,14521.0,50.525,13.04165,4.0
DE,09474,Crottendorf,Sachsen,SN,,0.0,Erzgebirgskreis,14521.0,50.5167,12.95,4.0
DE,09477,Jöhstadt,Sachsen,SN,,0.0,Erzgebirgskreis,14521.0,50.5123,13.0946,4.0
DE,09481,"Scheibenberg, Elterlein",Sachsen,SN,,0.0,Erzgebirgskreis,14521.0,50.5584,12.8903,4.0
DE,09484,Oberwiesenthal,Sachsen,SN,,0.0,Erzgebirgskreis,14521.0,50.4167,12.9833,4.0
DE,09487,Schlettau,Sachsen,SN,,0.0,Erzgebirgskreis,14521.0,50.5588,12.9527,4.0
DE,09488,Wiesa,Sachsen,SN,,0.0,Erzgebirgskreis,14521.0,50.6111,13.0138,4.0
DE,09496,"Pobershau, Marienberg",Sachsen,SN,,0.0,Erzgebirgskreis,14521.0,50.626999999999995,13.203050000000001,4.0
DE,09509,Pockau,Sachsen,SN,,0.0,Erzgebirgskreis,14521.0,50.7241,13.2798,
DE,09514,Lengefeld,Sachsen,SN,,0.0,Erzgebirgskreis,14521.0,50.7191,13.1929,4.0
DE,09517,Zöblitz,Sachsen,SN,,0.0,Erzgebirgskreis,14521.0,50.6591,13.2298,4.0
DE,09518,Großrückerswalde,Sachsen,SN,,0.0,Erzgebirgskreis,14521.0,50.6333,13.1167,4.0
DE,09526,"Olbernhau, Heidersdorf, Pfaffroda",Sachsen,SN,,0.0,Erzgebirgskreis,14521.0,50.68066666666667,13.364166666666668,4.0
DE,09544,Neuhausen/Erzgebirge,Sachsen,SN,,0.0,Landkreis Mittelsachsen,14522.0,50.675,13.4667,4.0
DE,09548,"Deutschneudorf, Seiffen/Erzgebirge",Sachsen,SN,,0.0,Erzgebirgskreis,14521.0,50.63335,13.45835,4.0
DE,09557,Flöha,Sachsen,SN,,0.0,Landkreis Mittelsachsen,14522.0,50.8561,13.0741,4.0
DE,09569,"Gahlenz, Frankenstein, Oederan, Falkenau",Sachsen,SN,,0.0,Landkreis Mittelsachsen,14522.0,50.860625,13.177325,4.0
DE,09573,"Augustusburg, Leubsdorf",Sachsen,SN,,0.0,Landkreis Mittelsachsen,14522.0,50.805949999999996,13.134350000000001,4.0
DE,09575,Eppendorf,Sachsen,SN,,0.0,Landkreis Mittelsachsen,14522.0,50.8,13.2333,4.0
DE,09577,Niederwiesa,Sachsen,SN,,0.0,Landkreis Mittelsachsen,14522.0,50.8667,13.0167,4.0
DE,09579,"Grünhainichen, Borstendorf",Sachsen,SN,,0.0,Erzgebirgskreis,14521.0,50.7702,13.166450000000001,4.0
DE,09595,Agentur für Arbeit Freiberg,Saxony,13,,,Landkreis Mittelsachsen,14522.0,50.911,13.3417,
DE,09596,"Landratsamt Freiberg, TU Bergakademie Freiberg, GAF Gesellschaft für Automatisierungstechnik mbH, Deutsches Brennstoffinstitut Vermögensverwaltungs GmbH, Kreiskrankenhaus Freiberg gGmbH, Stadtverwaltung Freiberg Hauptverwaltung, Finanzamt Freiberg",Saxony,13,,,Landkreis Mittelsachsen,14522.0,50.91301428571428,13.348057142857142,
DE,09599,Freiberg,Sachsen,SN,,0.0,Landkreis Mittelsachsen,14522.0,50.9109,13.3388,4.0
DE,09600,"Weißenborn/Erzgebirge, Niederschöna, Oberschöna",Sachsen,SN,,0.0,Landkreis Mittelsachsen,14522.0,50.910333333333334,13.3632,4.0
DE,09603,Großschirma,Sachsen,SN,,0.0,Landkreis Mittelsachsen,14522.0,50.966,13.2859,4.0
DE,09618,"Großhartmannsdorf, Brand-Erbisdorf",Sachsen,SN,,0.0,Landkreis Mittelsachsen,14522.0,50.80615,13.32365,4.0
DE,09619,"Mulda/Sachsen, Sayda, Dorfchemnitz bei Sayda",Sachsen,SN,,0.0,Landkreis Mittelsachsen,14522.0,50.759299999999996,13.429466666666665,4.0
DE,09623,"Rechenberg-Bienenmühle, Frauenstein",Sachsen,SN,,0.0,Landkreis Mittelsachsen,14522.0,50.7703,13.53645,4.0
DE,09627,"Bobritzsch, Hilbersdorf",Sachsen,SN,,0.0,Landkreis Mittelsachsen,14522.0,50.90495,13.4206,4.0
DE,09629,Reinsberg,Sachsen,SN,,0.0,Landkreis Mittelsachsen,14522.0,51.0082,13.3654,4.0
DE,09633,Halsbrücke,Sachsen,SN,,0.0,Landkreis Mittelsachsen,14522.0,50.95,13.35,4.0
DE,09634,Siebenlehn,Sachsen,SN,,0.0,Landkreis Mittelsachsen,14522.0,51.0311,13.3081,4.0
DE,09638,Lichtenberg/Erzgebirge,Sachsen,SN,,0.0,Landkreis Mittelsachsen,14522.0,50.8333,13.4167,4.0
DE,09648,"Mittweida, Kriebstein, Altmittweida",Sachsen,SN,,0.0,Landkreis Mittelsachsen,14522.0,51.00096666666667,12.980699999999999,4.0
DE,09660,Agentur für Arbeit Hainichen,Saxony,13,,,Landkreis Mittelsachsen,14522.0,50.9699,13.1194,
DE,09661,"Striegistal, Rossau, Hainichen, Tiefenbach",Sachsen,SN,,0.0,Landkreis Mittelsachsen,14522.0,50.956,13.051075,4.0
DE,09669,Frankenberg/Sachsen,Sachsen,SN,,0.0,Landkreis Mittelsachsen,14522.0,50.9259,13.0596,
DE,10026,N26 AG,Land Berlin,16,,,"Berlin, Stadt",11000.0,52.5172,13.4149,
DE,10082,Deutsche Post AG RBZ Berlin EPOS-FI,Land Berlin,16,,,"Berlin, Stadt",11000.0,52.5318,13.3838,
DE,10083,Deutsche Post AG Regionales Buchhaltungszentrum,Land Berlin,16,,,"Berlin, Stadt",11000.0,52.5318,13.3838,
DE,10086,Job-Center Berlin Mitte,Land Berlin,16,,,"Berlin, Stadt",11000.0,52.5105,13.4024,
DE,10096,Berliner Verkehrsbetriebe (BVG) Anstalt des öffentlichen Rechts,Land Berlin,16,,,"Berlin, Stadt",11000.0,52.5137,13.4227,
DE,10098,Uni Klinikum Charite Medizinische Fakultät der Humboldt-Universität,Land Berlin,16,,,"Berlin, Stadt",11000.0,52.5237,13.3799,
DE,10099,Humboldt-Universität,Land Berlin,16,,,"Berlin, Stadt",11000.0,52.5176,13.3938,
DE,10102,Staatsbibliothek zu Berlin Preußischer Kulturbesitz,Land Berlin,16,,,"Berlin, Stadt",11000.0,52.5175,13.3916,
DE,10103,TOTAL Deutschland GmbH,Land Berlin,16,,,"Berlin, Stadt",11000.0,52.5286,13.3692,
DE,10104,Germany Trade & Invest Gesellschaft für Außenwirtschaft,Land Berlin,16,,,"Berlin, Stadt",11000.0,52.5106,13.3901,
DE,10105,"Adam Opel GmbH, Metropol-Theater Betriebsgesellschaft mbH, ABN AMRO Bank (D) AG, Bethmann Bank AG",Land Berlin,16,,,"Berlin, Stadt",11000.0,52.518525,13.387350000000001,
DE,10106,"St. Hedwigskrankenhaus, Bundesarchiv Stasi-Unterlagen-Archiv, Konzerthaus Berlin - Schauspielhaus am Gendarmenmarkt - Berliner Sinfonie-",Land Berlin,16,,,"Berlin, Stadt",11000.0,52.51673333333334,13.426899999999998,
DE,10107,"Bundesrechnungshof -Außenstelle Berlin-, Volk und Wissen Verlag GmbH, DEGES DEUTSCHE EINHEIT Fernstraßenpl. und Bau GmbH, West östl. Diven, Elbo-Bau AG, CLF Hypothekenbank Berlin AG, Verlag Construktiv, Aral Berlin GmbH",Land Berlin,16,,,"Berlin, Stadt",11000.0,52.5126625,13.392175,
DE,10108,"Naturschutzbund Deutschland e.V. Bundesgeschäftsstelle, Deutsches Institut für Wirtschaftsforschung, Deutsche Apotheker- und Ärztebank eG, Jan Internationalo GmbH",Land Berlin,16,,,"Berlin, Stadt",11000.0,52.522875,13.3835,
DE,10109,"Deutsche Aussenhandelsbank AG, Bank für Kirche und Diakonie eG, Stiftung Oper in Berlin, Deutsche Verkehrsbank AG",Land Berlin,16,,,"Berlin, Stadt",11000.0,52.516475,13.39135,
DE,10112,ver.di Bundesverwaltung,Land Berlin,16,,,"Berlin, Stadt",11000.0,52.509,13.4279,
DE,10115,Berlin,Berlin,BE,,0.0,"Berlin, Stadt",11000.0,52.5323,13.3846,6.0
DE,10117,Berlin,Berlin,BE,,0.0,"Berlin, Stadt",11000.0,52.517,13.3872,6.0
DE,10119,Berlin,Berlin,BE,,0.0,"Berlin, Stadt",11000.0,52.5305,13.4053,6.0
DE,10150,Berliner Feuerwehr,Land Berlin,16,,,"Berlin, Stadt",11000.0,52.5169,13.4147,
DE,10169,Deutscher Mieterbund e.V.,Land Berlin,16,,,"Berlin, Stadt",11000.0,52.5176,13.4142,
DE,10173,Alex-Hausverwaltung GmbH,Land Berlin,16,,,"Berlin, Stadt",11000.0,52.5258,13.4135,
DE,10178,Berlin,Berlin,BE,,0.0,"Berlin, Stadt",11000.0,52.5213,13.4096,6.0
DE,10179,Berlin,Berlin,BE,,0.0,"Berlin, Stadt",11000.0,52.5122,13.4164,6.0
DE,10243,Berlin Friedrichshain,Berlin,BE,,0.0,"Berlin, Stadt",11000.0,52.5123,13.4394,6.0
DE,10245,Berlin Friedrichshain,Berlin,BE,,0.0,"Berlin, Stadt",11000.0,52.5007,13.4647,6.0
DE,10247,Berlin Friedrichshain,Berlin,BE,,0.0,"Berlin, Stadt",11000.0,52.5161,13.4656,6.0
DE,10249,Berlin Friedrichshain,Berlin,BE,,0.0,"Berlin, Stadt",11000.0,52.5238,13.4428,6.0
DE,10306,Amt für Statistik Berlin-Brandenburg,Land Berlin,16,,,"Berlin, Stadt",11000.0,52.5094,13.5255,
DE,10313,Fachhochschule für Technik und Wirtschaft Berlin,Land Berlin,16,,,"Berlin, Stadt",11000.0,52.4932,13.5259,
DE,10315,Berlin,Berlin,BE,,0.0,"Berlin, Stadt",11000.0,52.5132,13.5148,6.0
DE,10317,Berlin,Berlin,BE,,0.0,"Berlin, Stadt",11000.0,52.4979,13.4908,6.0
DE,10318,Berlin,Berlin,BE,,0.0,"Berlin, Stadt",11000.0,52.4835,13.5287,6.0
DE,10319,Berlin,Berlin,BE,,0.0,"Berlin, Stadt",11000.0,52.4992,13.5188,6.0
DE,10356,Jobcenter Geschäftsstelle Lichtenberg,Land Berlin,16,,,"Berlin, Stadt",11000.0,52.5183,13.4882,
DE,10358,Finanzamt Lichtenberg/Hohenschönhausen,Land Berlin,16,,,"Berlin, Stadt",11000.0,52.5094,13.5255,
DE,10360,Bezirksamt Lichtenberg von Berlin,Land Berlin,16,,,"Berlin, Stadt",11000.0,52.5094,13.5255,
DE,10361,"Bundesverwaltungsamt Außenstelle Berlin- Lichtenberg, BerlinerLuft Holding GmbH, ACCON-RVS-Accounting & Consulting GmbH",Land Berlin,16,,,"Berlin, Stadt",11000.0,52.52323333333334,13.485833333333332,
DE,10362,Finanzamt für Körperschaften II und IV,Land Berlin,16,,,"Berlin, Stadt",11000.0,52.5149,13.4887,
DE,10365,Berlin,Berlin,BE,,0.0,"Berlin, Stadt",11000.0,52.5206,13.4969,6.0
DE,10367,Berlin,Berlin,BE,,0.0,"Berlin, Stadt",11000.0,52.5246,13.4821,6.0
DE,10369,Berlin,Berlin,BE,,0.0,"Berlin, Stadt",11000.0,52.5295,13.4695,6.0
DE,10400,"Bezirksamt Prenzlauer Berg von Berlin, HUSS-MEDIEN GmbH",Land Berlin,16,,,"Berlin, Stadt",11000.0,52.535,13.427900000000001,
DE,10405,Berlin,Berlin,BE,,0.0,"Berlin, Stadt",11000.0,52.5352,13.4257,6.0
DE,10407,Berlin,Berlin,BE,,0.0,"Berlin, Stadt",11000.0,52.5336,13.4492,6.0
DE,10409,Berlin,Berlin,BE,,0.0,"Berlin, Stadt",11000.0,52.5443,13.4414,6.0
DE,10431,"Finanzamt Pankow/Weißensee, Berliner Gebäudereinigung GmbH",Land Berlin,16,,,"Berlin, Stadt",11000.0,52.5426,13.42995,
DE,10435,Berlin,Berlin,BE,,0.0,"Berlin, Stadt",11000.0,52.5378,13.4112,6.0
DE,10437,Berlin,Berlin,BE,,0.0,"Berlin, Stadt",11000.0,52.5449,13.4126,6.0
DE,10439,Berlin,Berlin,BE,,0.0,"Berlin, Stadt",11000.0,52.5522,13.4121,6.0
DE,10546,VHV Vereinigte Hannoversche Versicherung a.G.,Land Berlin,16,,,"Berlin, Stadt",11000.0,52.5334,13.28,
DE,10547,AVM,Land Berlin,16,,,"Berlin, Stadt",11000.0,52.5234,13.3446,
DE,10548,"Deutsche Post AG Filiale Berlin 21, VHV Vereinigte Hannoversche Versicherung a.G., Siemens AG Unternehmensbereich KWU",Land Berlin,16,,,"Berlin, Stadt",11000.0,52.5293,13.317133333333333,
DE,10551,Berlin,Berlin,BE,,0.0,"Berlin, Stadt",11000.0,52.5307,13.3372,6.0
DE,10553,Berlin,Berlin,BE,,0.0,"Berlin, Stadt",11000.0,52.5305,13.3215,6.0
DE,10555,Berlin,Berlin,BE,,0.0,"Berlin, Stadt",11000.0,52.5215,13.3355,6.0
DE,10557,Berlin,Berlin,BE,,0.0,"Berlin, Stadt",11000.0,52.5233,13.3594,6.0
DE,10559,Berlin,Berlin,BE,,0.0,"Berlin, Stadt",11000.0,52.5301,13.3499,6.0
DE,10585,Berlin,Berlin,BE,,0.0,"Berlin, Stadt",11000.0,52.5152,13.3057,6.0
DE,10587,Berlin,Berlin,BE,,0.0,"Berlin, Stadt",11000.0,52.5184,13.3195,6.0
DE,10589,Berlin,Berlin,BE,,0.0,"Berlin, Stadt",11000.0,52.5276,13.3057,6.0
DE,10617,"R+V Versicherung, Bezirksamt Charlottenburg-Wilmersdorf, Deutsche Post AG Filiale Berlin 12",Land Berlin,16,,,"Berlin, Stadt",11000.0,52.51253333333333,13.3177,
DE,10623,Berlin,Berlin,BE,,0.0,"Berlin, Stadt",11000.0,52.5088,13.3274,6.0
DE,10625,Berlin,Berlin,BE,,0.0,"Berlin, Stadt",11000.0,52.5095,13.3147,6.0
DE,10627,Berlin,Berlin,BE,,0.0,"Berlin, Stadt",11000.0,52.508,13.303,6.0
DE,10629,Berlin,Berlin,BE,,0.0,"Berlin, Stadt",11000.0,52.5028,13.3086,6.0
DE,10702,"Landesverwaltungsamt Berlin, Ver.di Vereinte Dienstleistungsgewerkschaft, Roland Rechtsschutz-Versicherungs AG, Wiemer u. Trachte, Fachgemeinschaft Bau Berlin e.V., Caritas-Krankenhilfe Berlin e. V., Touristica Ferien- u. Freizeitreisen GmbH, BG BAU - Berufsgenossenschaft der Bauwirtschaft - Hauptverwaltung, Eduard Winter GmbH & Co. KG, DAK Deutsche Angestellten Krankenkasse, Becker u. Kries, Deutsche Post AG Filiale Berlin 31, BG Bau Berufsgenossenschaft der Bauwirtschaft, Finanzamt Wilmersdorf, Böttger GmbH, Bundesarchiv, Umlauf u. Klein GmbH, Senatsverwaltung für Stadtentwicklung, IBB Investitionsbank Berlin",Land Berlin,16,,,"Berlin, Stadt",11000.0,52.49045263157895,13.318757894736843,
DE,10703,NÜRNBERGER Lebensversicherung AG,Land Berlin,16,,,"Berlin, Stadt",11000.0,52.5021,13.321,
DE,10704,Deutsche Rentenversicherung Bund,Land Berlin,16,,,"Berlin, Stadt",11000.0,52.4904,13.3112,
DE,10705,ZBI GmbH,Land Berlin,16,,,"Berlin, Stadt",11000.0,52.4974,13.293,
DE,10707,Berlin,Berlin,BE,,0.0,"Berlin, Stadt",11000.0,52.4967,13.3138,6.0
DE,10709,Berlin,Berlin,BE,,0.0,"Berlin, Stadt",11000.0,52.4939,13.3031,6.0
DE,10711,Berlin,Berlin,BE,,0.0,"Berlin, Stadt",11000.0,52.4981,13.2905,6.0
DE,10713,Berlin,Berlin,BE,,0.0,"Berlin, Stadt",11000.0,52.4851,13.3133,6.0
DE,10715,Berlin,Berlin,BE,,0.0,"Berlin, Stadt",11000.0,52.4824,13.3289,6.0
DE,10717,Berlin,Berlin,BE,,0.0,"Berlin, Stadt",11000.0,52.4908,13.3275,6.0
DE,10719,Berlin,Berlin,BE,,0.0,"Berlin, Stadt",11000.0,52.4988,13.3257,6.0
DE,10768,Volksfürsorge Schadenzentrum,Land Berlin,16,,,"Berlin, Stadt",11000.0,52.4998,13.3253,
DE,10772,"DeGeWo, DIN Deutsches Institut für Normung e.V., Staatsbibliothek zu Berlin Preußischer Kulturbesitz, DIN Media GmbH",Land Berlin,16,,,"Berlin, Stadt",11000.0,52.506099999999996,13.357025,
